Address|Price(MX$)|Bedrooms|Bathrooms|Size(m2)|Latitud|Longitud|Coordinates|Distance
  Tokio 65, A1, Juárez, Cuauhtémoc, Distrito Federal (cdmx)|30000|2|2.0|107|19.4236938|-99.1721906|19.4236938,-99.1721906|4.297167038429124 km
  Azalea 152, Lomas Quebradas, La Magdalena Contreras, Distrito Federal (cdmx)|13500|2|2.0|140|19.314178100000003|-99.2460849|19.314178100000003,-99.2460849|15.946267833510046 km
  Lago Iseo 532, Be Grand Alto Polanc, Colonia Anahuac I Sección, Miguel Hidalgo, Distrito Federal (cdmx)|35000|2|2.0|109|19.4410251|-99.18185799999999|19.4410251,-99.181858|6.071148777364412 km
  Congreso 113, La Joya, Tlalpan, Distrito Federal (cdmx)|11350|2|1.0|102|19.2803318|-99.1682004|19.2803318,-99.1682004|14.900740904606673 km
  Rómulo O'farril 520, Colonia Olivar De Los Padres, Álvaro Obregón, Distrito Federal (cdmx)|14500|2|2.0|76|19.3377623|-99.2145908|19.3377623,-99.2145908|11.744255007244492 km
  Av. Emiliano Zapata 409, Santa Cruz Atoyac, Benito Juárez, Distrito Federal (cdmx)|14800|2|2.0|80|19.3690154|-99.1611432|19.3690154,-99.1611432|5.463500710111585 km
  1a Privada De La 5 Cerrada De Av Mexico 5, Cuajimalpa De Morelos, Distrito Federal (cdmx)|12000|1|2.0|60|19.3645334|-99.2999321|19.3645334,-99.2999321|18.21235629991537 km
  Jorge Bernard Shaw 10 10, 202, Polanco, Miguel Hidalgo, Distrito Federal (cdmx)|32000|3|2.0|185|19.431912|-99.2043783|19.431912,-99.20437829999999|7.79256223101068 km
  Jorge Bernard Shaw 10 10, 602, Polanco, Miguel Hidalgo, Distrito Federal (cdmx)|34000|3|2.0|185|19.431912|-99.2043783|19.431912,-99.20437829999999|7.79256223101068 km
  Hegel 210, Polanco, Miguel Hidalgo, Distrito Federal (cdmx)|40700|3|3.0|149|19.4351432|-99.1878935|19.4351432,-99.1878935|6.306087467407125 km
  Amplísimo, Mide 460m² En Lomas De Chapultepec, Lomas De Chapultepec, Miguel Hidalgo, Distrito Federal (cdmx)|873225|3|3.0|460|19.4249374|-99.2134442|19.424937399999997,-99.2134442|8.531877812674082 km
  Avenida Santa Fe 482, Cuajimalpa De Morelos, 05349, Ciudad De Mexico, Santa Fe Cuajimalpa, Cuajimalpa De Morelos|24000|1|1.0|85|19.3594534|-99.2699073|19.3594534,-99.2699073|15.410889618677524 km
  Joaquin Garcia Izcabaleta 55, San Rafael, Cuauhtemoc, Ciudad De Mexico, San Rafael, Cuauhtémoc, Distrito Federal (cdmx)|16000|3|2.0|120|19.4413879|-99.16255629999999|19.4413879,-99.1625563|4.547471825908578 km
  Avenida Horacio1537, Polanco Iv Sección, Miguel Hidalgo, Distrito Federal (cdmx)|1261325|3|4.0|193|19.4355887|-99.2064672|19.4355887,-99.2064672|8.129919570502757 km
  Avenida De Las Torres 805, Torres Del Potrero, Alvaro Obregón Ciudad De México, Álvaro Obregón, Distrito Federal (cdmx)|17500|2|2.0|78|19.3342999|-99.2399338|19.334299899999998,-99.2399338|14.024579986843845 km
  Francisco Petrarca 139, Colonia Polanco Chapultepec, Miguel Hidalgo, Distrito Federal (cdmx)|97025|2|2.0|167|19.436182100000003|-99.1857411|19.436182100000003,-99.1857411|6.153844972964273 km
  Joaquin Garcia Izcabalceta 55, San Rafael, Cuauhtémoc, Distrito Federal (cdmx)|16000|3||120|19.4413879|-99.16255629999999|19.4413879,-99.1625563|4.547471825908578 km
  Calle Division Del Norte 293, Lomas De Memetla, Cuajimalpa, Ciudad De Mexico, Lomas De Memetla, Cuajimalpa De Morelos|16000|2|2.0|122|19.3586393|-99.2839664|19.3586393,-99.28396640000001|16.82301294162835 km
  Bosque De Tabachines 327, Colonia Bosques De Las Lomas, Bosques De Las Lomas, Cuajimalpa De Morelos|155240|3|3.0|650|19.3801662|-99.2606551|19.380166199999998,-99.2606551|13.774529892706653 km
  Palacio Escorial 20, Lomas De Reforma, Miguel Hidalgo, Distrito Federal (cdmx)|33000|2||70|19.4017163|-99.2348249|19.4017163,-99.2348249|10.682920703004244 km
  Avenida Jesus Del Monte 41, Jesús Del Monte, Cuajimalpa De Morelos|95312|2||184|19.3754716|-99.2945852|19.3754716,-99.2945852|17.3609128482029 km
  Encarnacion Ortiz 1860, Azcapotzalco, Distrito Federal (cdmx)|14000|2|2.0|69|19.4714503|-99.1613575|19.4714503,-99.1613575|7.3135970587742465 km
  Tabasco 267, Roma Norte, Cuauhtémoc, Distrito Federal (cdmx)|47000|2|3.0|113|19.4180712|-99.1653339|19.4180712,-99.16533390000001|3.4297274749862345 km
  Hegel 15, Polanco, Miguel Hidalgo, Distrito Federal (cdmx)|35000|3|2.0|230|19.4372428|-99.1881764|19.4372428,-99.1881764|6.435012777976676 km
  Moliere 118, Distrito Federal (cdmx)|75000|2|3.0|120|19.4335323|-99.2018276|19.4335323,-99.2018276|7.5946737816339045 km
  Cumbres De Maltrata 423, Narvarte, Benito Juárez, Distrito Federal (cdmx)|19000|2|2.0|70|19.3878982|-99.14802960000002|19.3878982,-99.14802960000002|2.9614436391284236 km
  Avenida Santa Fe 498, Lomas De Santa Fe, Álvaro Obregón, Distrito Federal (cdmx)|25000|1|1.0|82|19.3581997|-99.2717753|19.3581997,-99.2717753|15.644652000159176 km
  Calzada San Simon No. 82, San Simon Ticumac, Benito Juárez, Distrito Federal (cdmx)|10500|2|1.0|51|19.3746796|-99.1445991|19.3746796,-99.1445991|4.16986175253309 km
  Monte Elbruz 164, Lomas De Chapultepec, Miguel Hidalgo, Distrito Federal (cdmx)|194050|3|3.0|400|19.4294695|-99.2033552|19.4294695,-99.2033552|7.612599516316507 km
  Gabriel Mancera 1157, Del Valle Sur, Benito Juárez, Distrito Federal (cdmx)|19500|2|2.0|92|19.3783354|-99.1662886|19.378335399999997,-99.16628859999999|4.977647168909532 km
  Carrtera Mexico Toluca 5860, Contadero, Cuajimalpa De Morelos|16000|1|2.0|57|19.3641262|-99.2787997|19.364126199999998,-99.2787997|16.108919694379136 km
  Cofre De Perote 256, Lomas De Chapultepec, Miguel Hidalgo, Distrito Federal (cdmx)|33500|2|2.0|112|19.4265398|-99.22392579999999|19.4265398,-99.2239258|9.646595739263145 km
  Avenida General Ignacio Zaragoza Al 500, Venustiano Carranza, Distrito Federal (cdmx)|8500|3|1.0|70|19.4211744|-99.1226981|19.421174399999998,-99.1226981|1.6145157525825793 km
  Lago Zurich 219, Granada, Miguel Hidalgo, Distrito Federal (cdmx)|36500|2|3.0|118|19.442115|-99.20408929999999|19.442115,-99.2040893|8.173626640555126 km
  Calzada De Las Brujas 304, Villa Coapa, Tlalpan, Distrito Federal (cdmx)|10000|3|1.0|80|19.2974339|-99.1222877|19.297433899999998,-99.1222877|12.612473476341851 km
  Calle 28 De Diciembre Col. Emiliano Zapata, Coyoacàn, Coyoacán, Distrito Federal (cdmx)|13500|2|2.0|80|19.3264826|-99.1371429|19.3264826,-99.1371429|9.348559437167893 km
  Santa. Fe, Álvaro Obregón,penthouse 406, Álvaro Obregón, Distrito Federal (cdmx)|42000|2|3.0|270|19.386392800000007|-99.2255625|19.386392800000003,-99.2255625|10.035002363836337 km
  Ferrocarril Hidalgo 1404, Villa Gustavo A. Madero, Gustavo A. Madero|8000|2|1.0|60|19.4807018|-99.10792990000002|19.480701800000002,-99.10792990000002|8.186135575265414 km
  Centro (área 1), Cuauhtémoc, Distrito Federal (cdmx)|14000|2|2.0|60|19.430267800000006|-99.1373136|19.430267800000003,-99.1373136|2.183255959808334 km
  Centro (área 1), Cuauhtémoc, Distrito Federal (cdmx)|8500|2|1.0|72|19.430267800000006|-99.1373136|19.430267800000003,-99.1373136|2.183255959808334 km
  Centro (área 1), Cuauhtémoc, Distrito Federal (cdmx)|4500|2|1.0|61|19.430267800000006|-99.1373136|19.430267800000003,-99.1373136|2.183255959808334 km
  Centro (área 1), Cuauhtémoc, Distrito Federal (cdmx)|9000|2|1.0|65|19.430267800000006|-99.1373136|19.430267800000003,-99.1373136|2.183255959808334 km
  Centro (área 1), Cuauhtémoc, Distrito Federal (cdmx)|7000|1|1.0|71|19.430267800000006|-99.1373136|19.430267800000003,-99.1373136|2.183255959808334 km
  Centro (área 1), Cuauhtémoc, Distrito Federal (cdmx)|4500|2|1.0|61|19.430267800000006|-99.1373136|19.430267800000003,-99.1373136|2.183255959808334 km
  Centro (área 1), Cuauhtémoc, Distrito Federal (cdmx)|6500|2|1.0|59|19.430267800000006|-99.1373136|19.430267800000003,-99.1373136|2.183255959808334 km
  Centro (área 1), Cuauhtémoc, Distrito Federal (cdmx)|14000|2|2.0|60|19.430267800000006|-99.1373136|19.430267800000003,-99.1373136|2.183255959808334 km
  Centro (área 1), Cuauhtémoc, Distrito Federal (cdmx)|8500|2|1.0|72|19.430267800000006|-99.1373136|19.430267800000003,-99.1373136|2.183255959808334 km
  Centro (área 1), Cuauhtémoc, Distrito Federal (cdmx)|4500|2|1.0|61|19.430267800000006|-99.1373136|19.430267800000003,-99.1373136|2.183255959808334 km
  Centro (área 1), Cuauhtémoc, Distrito Federal (cdmx)|9000|2|1.0|65|19.430267800000006|-99.1373136|19.430267800000003,-99.1373136|2.183255959808334 km
  Centro (área 1), Cuauhtémoc, Distrito Federal (cdmx)|7000|1|1.0|71|19.430267800000006|-99.1373136|19.430267800000003,-99.1373136|2.183255959808334 km
  Centro (área 1), Cuauhtémoc, Distrito Federal (cdmx)|4500|2|1.0|61|19.430267800000006|-99.1373136|19.430267800000003,-99.1373136|2.183255959808334 km
  Centro (área 1), Cuauhtémoc, Distrito Federal (cdmx)|6500|2|1.0|59|19.430267800000006|-99.1373136|19.430267800000003,-99.1373136|2.183255959808334 km
  Centro (área 1), Cuauhtémoc, Distrito Federal (cdmx)|14000|2|2.0|60|19.430267800000006|-99.1373136|19.430267800000003,-99.1373136|2.183255959808334 km
  Centro (área 1), Cuauhtémoc, Distrito Federal (cdmx)|8500|2|1.0|72|19.430267800000006|-99.1373136|19.430267800000003,-99.1373136|2.183255959808334 km
  Centro (área 1), Cuauhtémoc, Distrito Federal (cdmx)|4500|2|1.0|61|19.430267800000006|-99.1373136|19.430267800000003,-99.1373136|2.183255959808334 km
  Centro (área 1), Cuauhtémoc, Distrito Federal (cdmx)|9000|2|1.0|65|19.430267800000006|-99.1373136|19.430267800000003,-99.1373136|2.183255959808334 km
  Centro (área 1), Cuauhtémoc, Distrito Federal (cdmx)|7000|1|1.0|71|19.430267800000006|-99.1373136|19.430267800000003,-99.1373136|2.183255959808334 km
  Centro (área 1), Cuauhtémoc, Distrito Federal (cdmx)|4500|2|1.0|61|19.430267800000006|-99.1373136|19.430267800000003,-99.1373136|2.183255959808334 km
  Centro (área 1), Cuauhtémoc, Distrito Federal (cdmx)|6500|2|1.0|59|19.430267800000006|-99.1373136|19.430267800000003,-99.1373136|2.183255959808334 km
  Avenida 14 25, Venustiano Carranza, Distrito Federal (cdmx)|15500|3|2.0|127|19.4125026|-99.0967503|19.4125026,-99.0967503|3.87182222578308 km
  Centro (área 1), Cuauhtémoc, Distrito Federal (cdmx)|14000|2|2.0|60|19.430267800000006|-99.1373136|19.430267800000003,-99.1373136|2.183255959808334 km
  Centro (área 1), Cuauhtémoc, Distrito Federal (cdmx)|8500|2|1.0|72|19.430267800000006|-99.1373136|19.430267800000003,-99.1373136|2.183255959808334 km
  Centro (área 1), Cuauhtémoc, Distrito Federal (cdmx)|4500|2|1.0|61|19.430267800000006|-99.1373136|19.430267800000003,-99.1373136|2.183255959808334 km
  Centro (área 1), Cuauhtémoc, Distrito Federal (cdmx)|9000|2|1.0|65|19.430267800000006|-99.1373136|19.430267800000003,-99.1373136|2.183255959808334 km
  Centro (área 1), Cuauhtémoc, Distrito Federal (cdmx)|7000|1|1.0|71|19.430267800000006|-99.1373136|19.430267800000003,-99.1373136|2.183255959808334 km
  Centro (área 1), Cuauhtémoc, Distrito Federal (cdmx)|4500|2|1.0|61|19.430267800000006|-99.1373136|19.430267800000003,-99.1373136|2.183255959808334 km
  Centro (área 1), Cuauhtémoc, Distrito Federal (cdmx)|6500|2|1.0|59|19.430267800000006|-99.1373136|19.430267800000003,-99.1373136|2.183255959808334 km
  Centro (área 1), Cuauhtémoc, Distrito Federal (cdmx)|14000|2|2.0|60|19.430267800000006|-99.1373136|19.430267800000003,-99.1373136|2.183255959808334 km
  Centro (área 1), Cuauhtémoc, Distrito Federal (cdmx)|8500|2|1.0|72|19.430267800000006|-99.1373136|19.430267800000003,-99.1373136|2.183255959808334 km
  Centro (área 1), Cuauhtémoc, Distrito Federal (cdmx)|4500|2|1.0|61|19.430267800000006|-99.1373136|19.430267800000003,-99.1373136|2.183255959808334 km
  Centro (área 1), Cuauhtémoc, Distrito Federal (cdmx)|9000|2|1.0|65|19.430267800000006|-99.1373136|19.430267800000003,-99.1373136|2.183255959808334 km
  Centro (área 1), Cuauhtémoc, Distrito Federal (cdmx)|7000|1|1.0|71|19.430267800000006|-99.1373136|19.430267800000003,-99.1373136|2.183255959808334 km
  Centro (área 1), Cuauhtémoc, Distrito Federal (cdmx)|4500|2|1.0|61|19.430267800000006|-99.1373136|19.430267800000003,-99.1373136|2.183255959808334 km
  Centro (área 1), Cuauhtémoc, Distrito Federal (cdmx)|6500|2|1.0|59|19.430267800000006|-99.1373136|19.430267800000003,-99.1373136|2.183255959808334 km
  Centro (área 1), Cuauhtémoc, Distrito Federal (cdmx)|14000|2|2.0|60|19.430267800000006|-99.1373136|19.430267800000003,-99.1373136|2.183255959808334 km
  Centro (área 1), Cuauhtémoc, Distrito Federal (cdmx)|8500|2|1.0|72|19.430267800000006|-99.1373136|19.430267800000003,-99.1373136|2.183255959808334 km
  Centro (área 1), Cuauhtémoc, Distrito Federal (cdmx)|4500|2|1.0|61|19.430267800000006|-99.1373136|19.430267800000003,-99.1373136|2.183255959808334 km
  Centro (área 1), Cuauhtémoc, Distrito Federal (cdmx)|9000|2|1.0|65|19.430267800000006|-99.1373136|19.430267800000003,-99.1373136|2.183255959808334 km
  Centro (área 1), Cuauhtémoc, Distrito Federal (cdmx)|7000|1|1.0|71|19.430267800000006|-99.1373136|19.430267800000003,-99.1373136|2.183255959808334 km
  Centro (área 1), Cuauhtémoc, Distrito Federal (cdmx)|4500|2|1.0|61|19.430267800000006|-99.1373136|19.430267800000003,-99.1373136|2.183255959808334 km
  Centro (área 1), Cuauhtémoc, Distrito Federal (cdmx)|6500|2|1.0|59|19.430267800000006|-99.1373136|19.430267800000003,-99.1373136|2.183255959808334 km
  Heriberto Frias 544, Narvarte, Benito Juárez, Distrito Federal (cdmx)|6000|1|1.0|20|19.3924579|-99.15970190000002|19.3924579,-99.15970190000002|3.418253923981184 km
  Manuel Toissaint 60, Coyoacán, Distrito Federal (cdmx)|5300|2|1.0|40|19.3477033|-99.1556963|19.3477033,-99.1556963|7.368095740119492 km
  Juan Alvarez 54, La Magdalena Contreras, Distrito Federal (cdmx)|7500|1|1.0|40|19.3015674|-99.23521459999999|19.3015674,-99.2352146|16.13776897869821 km
  Centro (área 1), Cuauhtémoc, Distrito Federal (cdmx)|14000|2|2.0|60|19.430267800000006|-99.1373136|19.430267800000003,-99.1373136|2.183255959808334 km
  Centro (área 1), Cuauhtémoc, Distrito Federal (cdmx)|8500|2|1.0|72|19.430267800000006|-99.1373136|19.430267800000003,-99.1373136|2.183255959808334 km
  Centro (área 1), Cuauhtémoc, Distrito Federal (cdmx)|4500|2|1.0|61|19.430267800000006|-99.1373136|19.430267800000003,-99.1373136|2.183255959808334 km
  Centro (área 1), Cuauhtémoc, Distrito Federal (cdmx)|9000|2|1.0|65|19.430267800000006|-99.1373136|19.430267800000003,-99.1373136|2.183255959808334 km
  Centro (área 1), Cuauhtémoc, Distrito Federal (cdmx)|7000|1|1.0|71|19.430267800000006|-99.1373136|19.430267800000003,-99.1373136|2.183255959808334 km
  Centro (área 1), Cuauhtémoc, Distrito Federal (cdmx)|4500|2|1.0|61|19.430267800000006|-99.1373136|19.430267800000003,-99.1373136|2.183255959808334 km
  Centro (área 1), Cuauhtémoc, Distrito Federal (cdmx)|6500|2|1.0|59|19.430267800000006|-99.1373136|19.430267800000003,-99.1373136|2.183255959808334 km
  Cerrada Ferrocarril De Cuernavaca 779, Ampliación Granada, Ciudad De México|45000|2|3.0|113|19.4416222|-99.19989059999999|19.441622199999998,-99.1998906|7.752246275276483 km
  Privada Paseo De Los Tamarindos No.7, Bosques De Las Lomas, Cuajimalpa De Morelos|42500|3|5.0|290|19.391738600000004|-99.2503287|19.391738600000004,-99.2503287|12.44504299364883 km
  Revolución 1336, Guadalupe Inn, Álvaro Obregón, Distrito Federal (cdmx)|22000|2|2.0|102|19.3584367|-99.1894233|19.3584367,-99.1894233|8.252552262936566 km
  Juan Salvador Agraz 37, Santa Fe, Álvaro Obregón, Distrito Federal (cdmx)|29900|2|2.0|125|19.3601662|-99.2800525|19.3601662,-99.2800525|16.37876393234396 km
  Residencial San Angel 000, Colonia Olivar De Los Padres, Álvaro Obregón, Distrito Federal (cdmx)|13700|1|1.0|60|19.3373288|-99.214254|19.3373288,-99.214254|11.75183550000674 km
  Miguel De Cervantes Saavedra 303, Irrigación, Ciudad De México|47000|2|2.0|120|19.4404213|-99.2078269|19.4404213,-99.20782690000001|8.456638391529212 km
  Algeciras 38 -301, Insurgentes Mixcoac, Benito Juárez, Distrito Federal (cdmx)|22500|3|3.0|150|19.3719604|-99.1809593|19.3719604,-99.1809593|6.582132920186325 km
  Calzada Desierto De Los Leones 4373, Tetelpan, Álvaro Obregón, Distrito Federal (cdmx)|23000|2|2.0|115|19.3462604|-99.2114751|19.3462604,-99.21147509999999|10.868265928656628 km
  Versalles 33, Juárez, Cuauhtémoc, Distrito Federal (cdmx)|22000|2|2.0|110|19.4309996|-99.1546154|19.4309996,-99.15461540000001|3.138539470410308 km
  Calzada De Tlalpan 1434, Portales Oriente, Benito Juárez, Distrito Federal (cdmx)|18000|2|2.0|90|19.3665135|-99.1418422|19.3665135,-99.1418422|4.985999838750893 km
  Popocatépetl 000, Xoco, Benito Juárez, Distrito Federal (cdmx)|22000|2|2.0|83|19.3650397|-99.1637713|19.3650397,-99.1637713|5.983037130964557 km
  Bucareli 128, Zona Centro, Cuauhtémoc, Distrito Federal (cdmx)|38810|3|2.0|310|19.4286228|-99.1522547|19.4286228,-99.1522547|2.7771653689432996 km
  Ejercito Nacional 453, 200, Ampliación Granada, Miguel Hidalgo, Distrito Federal (cdmx)|35000|3|3.0|115|19.438313|-99.1884775|19.438313,-99.1884775|6.517566818462378 km
  Luz Saviñon 206, Del Valle, Benito Juárez, Distrito Federal (cdmx)|25000|2|2.0|110|19.393463|-99.1703045|19.393463,-99.1703045|4.312335234608164 km
  Calzada México Tacuba 1501, Argentina Poniente, Miguel Hidalgo, Distrito Federal (cdmx)|9500|2|1.0|58|19.4555037|-99.2112174|19.455503699999998,-99.21121740000001|9.534189898272478 km
  Eugenia 606, Del Valle Centro, Benito Juárez, Distrito Federal (cdmx)|24500|2|2.0|68|19.3878637|-99.168406|19.3878637,-99.168406|4.457599836276397 km
  Retorno Arrecife 15, Las Águilas, Álvaro Obregón, Distrito Federal (cdmx)|9500|2|1.0|75|19.34948|-99.219988|19.34948,-99.219988|11.339481776546467 km
  Paseo De La Reforma 439, Cuauhtémoc, Cuauhtémoc, Distrito Federal (cdmx)|65000|1|2.0|120|19.4256497|-99.1723516|19.4256497,-99.1723516|4.389148999321045 km
  Laguna De Mayrán 375, Colonia Anahuac I Sección, Miguel Hidalgo, Distrito Federal (cdmx)|19000|2|2.0|82|19.4401814|-99.1770569|19.4401814,-99.1770569|5.602203856557515 km
  Adolfo Lopez Mateos 5146, Pedregal De Carrasco, Coyoacán, Distrito Federal (cdmx)|23000|2|2.0|104|19.3038209|-99.1770675|19.303820899999998,-99.1770675|12.700188043351174 km
  General Emiliano Zapata 360, Santa Cruz Atoyac, Benito Juárez, Distrito Federal (cdmx)|16000|2|2.0|78|19.3676607|-99.160102|19.3676607,-99.160102|5.53537246643508 km
  Toltecas 166, Carola, Álvaro Obregón, Distrito Federal (cdmx)|11000|3|2.0|70|19.3872822|-99.1917223|19.387282199999998,-99.1917223|6.642404917447795 km
  Av Centenario 1762, Ciudad De México, Distrito Federal (cdmx)|16500|1|1.0|50|19.3487381|-99.2524181|19.348738100000002,-99.2524181|14.25365383992397 km
  Romulo Oarril 520, Colonia Olivar De Los Padres, Álvaro Obregón, Distrito Federal (cdmx)|16500|2|2.0|77|19.3377623|-99.2145908|19.3377623,-99.2145908|11.744255007244492 km
  Iglesia 270, Tizapan, Álvaro Obregón, Distrito Federal (cdmx)|29000|3|2.0|130|19.3362518|-99.1996626|19.3362518,-99.1996626|10.790083624845458 km
  Av. De Las Torres 805, 407, Torres De Potrero, Álvaro Obregón, Distrito Federal (cdmx)|18000|2|2.0|70|19.3342999|-99.2399338|19.334299899999998,-99.2399338|14.024579986843845 km
  Presa Falcón 243, Ph1, Ampliación Granada, Miguel Hidalgo, Distrito Federal (cdmx)|50000|2|3.0|220|19.4435717|-99.204573|19.4435717,-99.204573|8.288801110202801 km
  En Renta Excelente Departamento En Privada De Tamarindos 29, Bosques De Las Lomas, Cuajimalpa De Morelos, Distrito Federal, Bosques De Las Lomas, Cuajimalpa De Morelos|26000|2|2.0|160|19.3845775|-99.25296329999999|19.3845775,-99.2529633|12.873825526913665 km
  Av Sta Fe 482, Santa Fe Cuajimalpa, Cuajimalpa De Morelos|22000|1|2.0|87|19.3590523|-99.2702192|19.359052300000002,-99.2702192|15.457778759052475 km
  Paseo De La Reforma 77, Tabacalera, Cuauhtémoc, Distrito Federal (cdmx)|32750|1|2.0|99|19.4336999|-99.1550421|19.433699899999997,-99.1550421|3.3870526833708325 km
  Ave. San Bernabe 655, San Jerónimo Lídice, Ciudad De México|16000|2|2.0|110|19.3295992|-99.2291858|19.3295992,-99.2291858|13.484244201618576 km
  Tomas Alva Edison 101, Tabacalera, Cuauhtémoc, Distrito Federal (cdmx)|22000|2|2.0|100|19.4377336|-99.1547865|19.4377336,-99.1547865|3.7159474519023514 km
  Av. Carlos Lazo 100, San Mateo Tlaltenango, Cuajimalpa De Morelos|78000|3|4.0|320|19.3482367|-99.2605663|19.3482367,-99.2605663|15.034612344411522 km
  Prol. Paseo De La Reforma 100, Santa Fe, Álvaro Obregón, Distrito Federal (cdmx)|17500|2|2.0|65|19.3826922|-99.247635|19.382692199999997,-99.247635|12.38026834918485 km
  Prolong. Bosques De Reforma 1455, 202, Bosques De Las Lomas, Cuajimalpa De Morelos|45000|3|4.0|420|19.3878909|-99.2631725|19.3878909,-99.2631725|13.848378960743736 km
  Dr. Barragan 850, Narvarte, Benito Juárez, Distrito Federal (cdmx)|22500|3|2.0|117|19.388557|-99.1479978|19.388557000000002,-99.1479978|2.8973235056486573 km
  Ejercito Nacional 1, Colonia Anahuac I Sección, Miguel Hidalgo, Distrito Federal (cdmx)|26300|2|2.0|95|19.4325493|-99.17277469999999|19.4325493,-99.1727747|4.7655925912567545 km
  Javier Barros Sierra 245, Lomas De Santa Fe, Ciudad De México|29000|3|3.0|145|19.373375|-99.2534416|19.373375,-99.2534416|13.257610990883132 km
  Ramos Millan 49, 0, Américas Unidas, Benito Juárez, Distrito Federal (cdmx)|25000|3|3.0|164|19.3832219|-99.1417738|19.3832219,-99.1417738|3.1791081132392085 km
  Av. Toluca 669 Olivar De Los Padres, Álvaro Obregón, Distrito Federal (cdmx)|16500|2|2.0|83|19.3375567|-99.2242857|19.337556699999997,-99.22428570000001|12.516827493198239 km
  Cacahuatales 20, Gabriel Ramos Millán, Iztacalco|10500|2|1.0|60|19.3007538|-99.1177779|19.3007538,-99.11777790000001|12.3015720129814 km
  Lago Alberto 300, Colonia Anahuac I Sección, Miguel Hidalgo, Distrito Federal (cdmx)|26000|2|2.0|93|19.4400628|-99.18302659999999|19.4400628,-99.1830266|6.117094012036179 km
  Lago Alberto 300, Colonia Anahuac I Sección, Miguel Hidalgo, Distrito Federal (cdmx)|18000|1|1.0|52|19.4400628|-99.18302659999999|19.4400628,-99.1830266|6.117094012036179 km
  Lomas De Sotelo 1120, Edificio C - 302, Lomas De Sotelo, Miguel Hidalgo, Distrito Federal (cdmx)|14000|3|3.0|100|19.4459977|-99.2163303|19.4459977,-99.2163303|9.521445501126705 km
  Calz Tlalpan 2971, Coyoacán, Distrito Federal (cdmx)|20000|4|3.0|129|19.324816100000003|-99.1383462|19.324816100000003,-99.1383462|9.538697699843398 km
  Sinaloa No. 179 Roma Norte, Roma Norte, Cuauhtémoc, Distrito Federal (cdmx)|21000|2|2.0|70|19.4198868|-99.1720176|19.4198868,-99.1720176|4.1593025633703125 km
  Golfo De San Jorge 37 Tacuba Miguel Hidalgo, Tacuba, Miguel Hidalgo, Distrito Federal (cdmx)|12000|2|2.0|69|19.4546276|-99.1863144|19.454627600000002,-99.18631440000001|7.358188834252988 km
  Lomas De Sotelo 1120, Edificio C, Lomas De Sotelo, Miguel Hidalgo, Distrito Federal (cdmx)|14300|3|2.0|110|19.4459977|-99.2163303|19.4459977,-99.2163303|9.521445501126705 km
  Culiacan 1, Ph, Hipódromo Condesa, Cuauhtémoc, Distrito Federal (cdmx)|38000|2|3.0|143|19.4085807|-99.1714436|19.4085807,-99.1714436|3.9855688061420693 km
  José María Rico 118, Actipan, Benito Juárez, Distrito Federal (cdmx)|24000|2|3.0|120|19.3688957|-99.1780302|19.3688957,-99.17803020000001|6.587399310106082 km
  Av. Coyoacán 635, Del Valle, Benito Juárez, Distrito Federal (cdmx)|26000|4|2.0|140|19.3883617|-99.1669628|19.3883617,-99.16696280000001|4.301880089138042 km
  Andrea Del Castagno 79, Mixcoac, Benito Juárez, Distrito Federal (cdmx)|24200|2|2.0|87|19.3836295|-99.191079|19.3836295,-99.191079|6.751018638586238 km
  Sur 109, Iztacalco, Distrito Federal (cdmx)|10000|2|1.0|100|19.379658300000006|-99.1279424|19.379658300000003,-99.12794240000001|3.504958458211645 km
  Paseo De La Reforma 0, Zona Centro, Cuauhtémoc, Distrito Federal (cdmx)|90000|1|2.0|120|19.4382486|-99.1457945|19.4382486,-99.1457945|3.291614200403532 km
  Lago Neuchatel 10, Granada, Miguel Hidalgo, Distrito Federal (cdmx)|29200|3|2.0|125|19.4423271|-99.20165159999999|19.4423271,-99.2016516|7.952661528136879 km
  Avenida San Miguel 40, Xalpa, Ciudad De México|8500|2|2.0|100|19.332842000000007|-99.0320843|19.332842000000003,-99.0320843|13.721473734399105 km
  Uxmal 00, Santa Cruz Atoyac, Benito Juárez, Distrito Federal (cdmx)|19000|2|2.0|85|19.3722303|-99.1587114|19.372230300000002,-99.1587114|5.0263920446582775 km
  Calzada San Isidro 492 San Pedro Xalpa, Azcapotzalco, Cdmx, San Pedro Xalpa, Azcapotzalco, Distrito Federal (cdmx)|11500|3|2.0|90|19.4841904|-99.2065419|19.4841904,-99.2065419|11.162011088441993 km
  Popocatepetl 00, Santa Cruz Atoyac, Benito Juárez, Distrito Federal (cdmx)|19000|2|2.0|86|19.3642068|-99.16079090000001|19.3642068,-99.1607909|5.903599857926502 km
  Lago Zurich 168, 0, Granada, Miguel Hidalgo, Distrito Federal (cdmx)|26000|2|2.0|100|19.4448159|-99.20263890000001|19.4448159,-99.2026389|8.168980116068807 km
  Sierra Gorda 23, Torre Encinos - G3, Lomas De Chapultepec, Miguel Hidalgo, Distrito Federal (cdmx)|116430|3|3.0|352|19.4279636|-99.221941|19.4279636,-99.221941|9.471803468997715 km
  Guanábana 10, Nueva Santa Maria, Azcapotzalco, Distrito Federal (cdmx)|10500|2|1.0|75|19.4593296|-99.1691353|19.4593296,-99.1691353|6.5365537761663 km
  Calle10, San Pedro De Los Pinos, Benito Juárez, Distrito Federal (cdmx)|25000|2|2.0|90|19.3893443|-99.18854559999998|19.3893443,-99.18854559999998|6.246327311491292 km
  Etla 10, Colonia Condesa, Cuauhtémoc, Distrito Federal (cdmx)|35000|3|2.0|140|19.4064776|-99.1751463|19.406477600000002,-99.1751463|4.393404318701037 km
  Avenida Centenario 2025, Distrito Federal (cdmx)|19000|2|2.0|3,183|19.4984052|-99.0957846|19.4984052,-99.09578459999999|10.471220033865887 km
  Lago Zirahuen 98, Colonia Anahuac I Sección, Miguel Hidalgo, Distrito Federal (cdmx)|11500|2|1.0|58|19.4451923|-99.1728766|19.445192300000002,-99.1728766|5.610247802732323 km
  Minatitlan 54, San Jerónimo Aculco, La Magdalena Contreras, Distrito Federal (cdmx)|18500|2|2.0|122|19.3167615|-99.2271361|19.3167615,-99.2271361|14.322726720044288 km
  Popocatepetl 435, 9, Santa Cruz Atoyac, Benito Juárez, Distrito Federal (cdmx)|19100|2|2.0|77|19.3649878|-99.1618347|19.364987799999998,-99.1618347|5.882671851537209 km
  Departamento Graden En Renta En Lomas De Chapultepec Con 1 Recamara, Lomas De Chapultepec, Miguel Hidalgo, Distrito Federal (cdmx)|26500|1|2.0|100|19.4194815|-99.18945579999999|19.4194815,-99.1894558|5.9461488677794865 km
  Jesus Del Monte 274, Jesús Del Monte, Cuajimalpa De Morelos|55000|3|2.0|360|19.3901493|-99.2922717|19.3901493,-99.2922717|16.826257447182062 km
  Popocatepetl 435, 20, Santa Cruz Atoyac, Benito Juárez, Distrito Federal (cdmx)|31500|3|3.0|94|19.3649878|-99.1618347|19.364987799999998,-99.1618347|5.882671851537209 km
  Avenida Vasco De Quiroga 1635, Santa Fe, Álvaro Obregón, Distrito Federal (cdmx)|5000|2|1.0|55|19.382186800000003|-99.2392743|19.382186800000003,-99.2392743|11.547779381774145 km
  Yacatas 24, 6, Narvarte, Benito Juárez, Distrito Federal (cdmx)|16500|3|1.0|110|19.400962|-99.1548005|19.400962,-99.15480050000001|2.4845423367770243 km
  Nellie Campobello 129, Carola, Álvaro Obregón, Distrito Federal (cdmx)|69858|2|1.0|72|19.3837964|-99.1971753|19.383796399999998,-99.1971753|7.32195825212382 km
  Fernando Alencastre 240, Lomas De Chapultepec Iv Sección, Miguel Hidalgo, Distrito Federal (cdmx)|23000|2|2.0|130|19.4213851|-99.2041352|19.421385100000002,-99.20413520000001|7.501797286967412 km
  Cumbres De Acultzingo 67, 108, Narvarte, Benito Juárez, Distrito Federal (cdmx)|9500|2|1.0|70|19.3923314|-99.14784209999999|19.3923314,-99.1478421|2.540870656758361 km
  Vértiz 983, Col. Vértiz Narvarte, Benito Juárez, Distrito Federal (cdmx)|18500|2|2.0|108|19.385499600000006|-99.1522473|19.385499600000003,-99.1522473|3.4252776414983774 km
  Ave De Las Torres 805, Colonia Olivar De Los Padres, Álvaro Obregón, Distrito Federal (cdmx)|18500|2|2.0|104|19.3342912|-99.239905|19.3342912,-99.23990500000001|14.022751921479214 km
  Pico De Verapaz 4, Jardines En La Montaña, Tlalpan, Distrito Federal (cdmx)|65000|3|4.0|400|19.2975321|-99.1964441|19.2975321,-99.1964441|14.178488328180094 km
  Sierra Gorda 23, Lomas De Chapultepec, Miguel Hidalgo, Distrito Federal (cdmx)|155240|4|4.0|400|19.4279636|-99.221941|19.4279636,-99.221941|9.471803468997715 km
  Sierra Gorda 23, Lomas De Chapultepec, Miguel Hidalgo, Distrito Federal (cdmx)|174645|3|4.0|353|19.4279636|-99.221941|19.4279636,-99.221941|9.471803468997715 km
  Avenida Mexico Coyoacan 371, Xoco, Benito Juárez, Distrito Federal (cdmx)|22000|2|2.0|80|19.3613949|-99.16319399999999|19.3613949,-99.163194|6.29858537617439 km
  Bosque De Radiatas 14, 2b, Bosques De Las Lomas, Miguel Hidalgo, Distrito Federal (cdmx)|38000|3|4.0|312|19.3886948|-99.2520349|19.3886948,-99.2520349|12.682670339940891 km
  Citlaltépetl 54, 9, Colonia Condesa, Cuauhtémoc, Distrito Federal (cdmx)|65000|2|3.0|220|19.4080605|-99.1717804|19.4080605,-99.1717804|4.024913626110984 km
  Ruben Dario 100, Miguel Hidalgo, Distrito Federal (cdmx)|60000|3|2.0|200|19.4289326|-99.1846333|19.4289326,-99.1846333|5.723289244029376 km
  Av. Popocatépetl 000, Xoco, Benito Juárez, Distrito Federal (cdmx)|20000|2|2.0|100|19.362775|-99.1634115|19.362775,-99.1634115|6.177771591028552 km
  Av. El Bordo 85 Col Ex Hacienda Tlalpan, Tlalpan, Distrito Federal (cdmx)|18000|2|2.0|88|19.3066704|-99.13817829999999|19.3066704,-99.1381783|11.544306344459425 km
  Nicolas San Juan 279, Del Valle Centro, Benito Juárez, Distrito Federal (cdmx)|19500|2|2.0|112|19.3986044|-99.1607849|19.3986044,-99.16078490000001|3.1640754044696004 km
  Jesus Del Monte 34, Jesús Del Monte, Cuajimalpa De Morelos|17500|1|1.0|50|19.3954203|-99.28992509999999|19.3954203,-99.2899251|16.511265317968476 km
  Guanajuato 44, Roma Norte, Cuauhtémoc, Distrito Federal (cdmx)|23000|2|2.0|70|19.4173783|-99.1563673|19.4173783,-99.1563673|2.5001338560920883 km
  Mar Adriático 100, Popotla, Miguel Hidalgo, Distrito Federal (cdmx)|25000|2|2.0|130|19.4521319|-99.17999499999999|19.452131899999998,-99.179995|6.680724579301101 km
  Av. Ejercito Nacional 769 Esquina Moliere, Granada, Miguel Hidalgo, Distrito Federal (cdmx)|30000|2|2.0|105|19.439641|-99.1995083|19.439641,-99.1995083|7.622009955064268 km
  Aguascalientes 185, 5, Colonia Condesa, Cuauhtémoc, Distrito Federal (cdmx)|25000|2|2.0|100|19.4077573|-99.1704832|19.4077573,-99.1704832|3.8919153470834327 km
  Encarnación Ortiz 1860, Azcapotzalco, Distrito Federal (cdmx)|18000|3|2.0|80|19.4714503|-99.1613575|19.4714503,-99.1613575|7.3135970587742465 km
  Encarnación Ortiz 1860, Azcapotzalco, Distrito Federal (cdmx)|13000|2|2.0|65|19.4714503|-99.1613575|19.4714503,-99.1613575|7.3135970587742465 km
  R.salido 166, Independencia, Benito Juárez, Distrito Federal (cdmx)|13950|2|2.0|75|19.3821537|-99.1503048|19.3821537,-99.1503048|3.631953858306775 km
  Cleveland 6, Ciudad De Los Deportes, Benito Juárez, Distrito Federal (cdmx)|2800000|2|2.0|84|19.3813898|-99.1810249|19.3813898,-99.18102490000001|5.957372510077454 km
  Amsterdam 1, Colonia Condesa, Cuauhtémoc, Distrito Federal (cdmx)|38810|2|2.0|140|19.41535|-99.1669756|19.41535,-99.1669756|3.543101194762247 km
  Ph En Renta Amueblado De 2 Nivles Y Roof Garden En Bosques De Las Lomas, Bosques De Las Lomas, Cuajimalpa De Morelos|950845|3|3.0|380|19.3904162|-99.2550003|19.390416199999997,-99.2550003|12.953679035900743 km
  Lago Neuchatel 12, Ampliación Granada, Miguel Hidalgo, Distrito Federal (cdmx)|29000|2|3.0|126|19.4423516|-99.20139379999999|19.442351600000002,-99.2013938|7.929521261267055 km
  Lago Alberto 320, Colonia Anahuac I Sección, Miguel Hidalgo, Distrito Federal (cdmx)|36000|3|2.0|150|19.4404402|-99.1851841|19.4404402,-99.18518409999999|6.332098659755514 km
  Guanajuato 66, Roma Norte, Cuauhtémoc, Distrito Federal (cdmx)|22000|2|2.0|119|19.417109600000003|-99.1574963|19.417109600000003,-99.1574963|2.6058565425724756 km
  Atenas 3, Lomas De Padierna, Tlalpan, Distrito Federal (cdmx)|2600|1|1.0|22|19.2742435|-99.2281609|19.2742435,-99.2281609|18.097059247734197 km
  Atenas 3, Lomas De Padierna, Tlalpan, Distrito Federal (cdmx)|2700|1|1.0|25|19.2742435|-99.2281609|19.2742435,-99.2281609|18.097059247734197 km
  Atenas 3, Lomas De Padierna, Tlalpan, Distrito Federal (cdmx)|3600|2|1.0|42|19.2742435|-99.2281609|19.2742435,-99.2281609|18.097059247734197 km
  Prolongación Paseo De La Reforma 260, Santa Fe Cuajimalpa, Cuajimalpa De Morelos|24000|3|2.0|100|19.3742203|-99.2612165|19.3742203,-99.2612165|14.00817286525195 km
  Bahía De Santa Barbara 0, 3, Veronica Anzures, Miguel Hidalgo, Distrito Federal (cdmx)|22000|2|2.0|93|19.4364254|-99.1748617|19.436425399999997,-99.17486170000001|5.177554887031031 km
  Avenida De Los Poetas 100, Colonia Cuajimalpa, Cuajimalpa De Morelos|49000|3|4.0|318|19.3518443|-99.2592438|19.3518443,-99.2592438|14.72991384528267 km
  General Mariano Escobedo 248, Miguel Hidalgo, Distrito Federal (cdmx)|25500|2|2.0|94|19.4423448|-99.18571659999999|19.4423448,-99.1857166|6.490712697166675 km
  Prol. Paseo De La Reforma 1, Santa Fe, Álvaro Obregón, Distrito Federal (cdmx)|22000|2|2.0|65|19.3804527|-99.2521306|19.3804527,-99.2521306|12.900357395546388 km
  Adolfo Prieto 1033, Del Valle, Benito Juárez, Distrito Federal (cdmx)|34000|2|3.0|116|19.386347600000004|-99.16909509999999|19.386347600000004,-99.1690951|4.613900836306483 km
  Adolfo Prieto 1033, Del Valle, Benito Juárez, Distrito Federal (cdmx)|30000|2|2.0|116|19.386347600000004|-99.16909509999999|19.386347600000004,-99.1690951|4.613900836306483 km
  Adolfo Prieto 1033, Del Valle, Benito Juárez, Distrito Federal (cdmx)|34000|2|2.0|116|19.386347600000004|-99.16909509999999|19.386347600000004,-99.1690951|4.613900836306483 km
  Adolfo Prieto 1033, Del Valle, Benito Juárez, Distrito Federal (cdmx)|26000|3|2.0|117|19.386347600000004|-99.16909509999999|19.386347600000004,-99.1690951|4.613900836306483 km
  Textitlán 42, Santa Ursula Coapa, Coyoacán, Distrito Federal (cdmx)|8000|2|1.0|60|19.3128007|-99.14258850000002|19.312800699999997,-99.14258850000002|10.896804459066862 km
  Departamento En Renta En Polanco Con 3 Recamaras., Polanco, Miguel Hidalgo, Distrito Federal (cdmx)|58215|3|3.0|250|19.431859|-99.186622|19.431859,-99.186622|6.03653782333064 km
  Chosica 655-3 Col.lindavista, Ciudad De México, Distrito Federal (cdmx)|13800|2|1.0|120|19.490405|-99.1357157|19.490405,-99.1357157|8.807552892956847 km
  Av. Presidente Masaryk 123, Polanco, Polanco, Miguel Hidalgo, Distrito Federal (cdmx)|37200|2||60|19.4319122|-99.19548990000001|19.4319122,-99.1954899|6.907405297040687 km
  Goldsmith a, 0, Polanco Iii Sección, Miguel Hidalgo, Distrito Federal (cdmx)|77620|3|4.0|180|19.4331242|-99.2005531|19.433124199999998,-99.2005531|7.4534206108197845 km
  Damas 76, San José Insurgentes, Benito Juárez, Distrito Federal (cdmx)|28000|3|3.0|171|19.3657248|-99.183387|19.365724800000002,-99.183387|7.235421185420973 km
  Av Bonampak Sm27 01, Benito Juárez, Distrito Federal (cdmx)|45000|4|4.0|320|19.3824573|-99.1520774|19.3824573,-99.15207740000001|3.696983171992253 km
  Atenas 3, Lomas De Padierna, Tlalpan, Distrito Federal (cdmx)|2600|1|1.0|22|19.2742435|-99.2281609|19.2742435,-99.2281609|18.097059247734197 km
  Atenas 3, Lomas De Padierna, Tlalpan, Distrito Federal (cdmx)|2700|1|1.0|25|19.2742435|-99.2281609|19.2742435,-99.2281609|18.097059247734197 km
  Atenas 3, Lomas De Padierna, Tlalpan, Distrito Federal (cdmx)|3600|2|1.0|42|19.2742435|-99.2281609|19.2742435,-99.2281609|18.097059247734197 km
  Bajio 232, Roma Sur, Cuauhtémoc, Distrito Federal (cdmx)|19500|2|2.0|105|19.4033523|-99.1643404|19.4033523,-99.16434040000001|3.336862413217192 km
  Popocatpetl 233 Santa Cruz Atoyac, Distrito Federal (cdmx)|14000|2|2.0|70|19.3624946|-99.1571447|19.3624946,-99.1571447|5.899405295399972 km
  Sagredo 253, Álvaro Obregón, Distrito Federal (cdmx)|25800|2|2.0|48|19.3613167|-99.1885042|19.3613167,-99.1885042|7.961250888403458 km
  Sagredo 253, Álvaro Obregón, Distrito Federal (cdmx)|19980|1|1.0|36|19.3613167|-99.1885042|19.3613167,-99.1885042|7.961250888403458 km
  Genova 20, Juárez, Cuauhtémoc, Distrito Federal (cdmx)|20000|2|2.0|118|19.4271789|-99.1642755|19.427178899999998,-99.1642755|3.695638327718838 km
  Bruno Traven 93, 1, General Pedro Maria Anaya, Benito Juárez, Distrito Federal (cdmx)|18500|2|2.0|100|19.3606089|-99.1600859|19.3606089,-99.1600859|6.221540638761602 km
  Prolongación 5 De Mayo, Lomas De Tarango, Álvaro Obregón, Distrito Federal (cdmx)|6950|2|1.0|46|19.3609065|-99.21569559999999|19.3609065,-99.2156956|10.24718137625786 km
  Av. Mexico 359, Cuajimalpa De Morelos, Distrito Federal (cdmx)|23500|3|3.0|148|19.3660535|-99.2981805|19.3660535,-99.2981805|17.98867429938561 km
  Adolfo Prieto 1033, Del Valle, Benito Juárez, Distrito Federal (cdmx)|34000|2|3.0|116|19.386347600000004|-99.16909509999999|19.386347600000004,-99.1690951|4.613900836306483 km
  Adolfo Prieto 1033, Del Valle, Benito Juárez, Distrito Federal (cdmx)|30000|2|2.0|116|19.386347600000004|-99.16909509999999|19.386347600000004,-99.1690951|4.613900836306483 km
  Adolfo Prieto 1033, Del Valle, Benito Juárez, Distrito Federal (cdmx)|34000|2|2.0|116|19.386347600000004|-99.16909509999999|19.386347600000004,-99.1690951|4.613900836306483 km
  Adolfo Prieto 1033, Del Valle, Benito Juárez, Distrito Federal (cdmx)|26000|3|2.0|117|19.386347600000004|-99.16909509999999|19.386347600000004,-99.1690951|4.613900836306483 km
  Av. Santa Fe 449, Cuajimalpa De Morelos, Distrito Federal (cdmx)|20000|3|3.0|173|19.3621383|-99.26670329999999|19.3621383,-99.2667033|14.989013092064612 km
  Culiacán 108, Condesa, Ciudad De México, Colonia Condesa, Cuauhtémoc, Distrito Federal (cdmx)|21500|2|2.0|130|19.4036622|-99.16999399999999|19.4036622,-99.169994|3.90758249598648 km
  Lago Alberto 300, Colonia Anahuac I Sección, Miguel Hidalgo, Distrito Federal (cdmx)|26000|2|2.0|93|19.4400628|-99.18302659999999|19.4400628,-99.1830266|6.117094012036179 km
  Lago Alberto 300, Colonia Anahuac I Sección, Miguel Hidalgo, Distrito Federal (cdmx)|18000|1|1.0|52|19.4400628|-99.18302659999999|19.4400628,-99.1830266|6.117094012036179 km
  Av. De Las Torres Al 800, Álvaro Obregón, Distrito Federal (cdmx)|14000|1|1.0|54|19.331789800000006|-99.244923|19.331789800000003,-99.244923|14.610481466732715 km
  Adolfo Prieto 1033, Del Valle, Benito Juárez, Distrito Federal (cdmx)|34000|2|3.0|116|19.386347600000004|-99.16909509999999|19.386347600000004,-99.1690951|4.613900836306483 km
  Adolfo Prieto 1033, Del Valle, Benito Juárez, Distrito Federal (cdmx)|30000|2|2.0|116|19.386347600000004|-99.16909509999999|19.386347600000004,-99.1690951|4.613900836306483 km
  Adolfo Prieto 1033, Del Valle, Benito Juárez, Distrito Federal (cdmx)|34000|2|2.0|116|19.386347600000004|-99.16909509999999|19.386347600000004,-99.1690951|4.613900836306483 km
  Adolfo Prieto 1033, Del Valle, Benito Juárez, Distrito Federal (cdmx)|26000|3|2.0|117|19.386347600000004|-99.16909509999999|19.386347600000004,-99.1690951|4.613900836306483 km
  Tiburcio Sánchez De La Barquera 115, Merced Gómez, Benito Juárez, Distrito Federal (cdmx)|20000|2|2.0|98|19.363917|-99.1901873|19.363917,-99.1901873|7.897962664785524 km
  Chosica 655-3 Col. Lindavista, Distrito Federal (cdmx)|13800|2|1.0|120|19.490405|-99.1357157|19.490405,-99.1357157|8.807552892956847 km
  Xicoténcatl 137, Colonia Del Carmen, Coyoacán, Distrito Federal (cdmx)|10000|1|1.0|60|19.3548977|-99.1544151|19.3548977,-99.1544151|6.571046794026104 km
  Mexico Coyoacan 371, Xoco, Benito Juárez, Distrito Federal (cdmx)|20000|2|2.0|80|19.3613949|-99.16319399999999|19.3613949,-99.163194|6.29858537617439 km
  Sanchez Azcona 1651, Del Valle Sur, Benito Juárez, Distrito Federal (cdmx)|17000|2|1.0|114|19.3710629|-99.165752|19.3710629,-99.165752|5.55332888296873 km
  Prolongación Reforma 1190, Cuajimalpa De Morelos, Distrito Federal (cdmx)|35000|2|2.0|140|19.360798000000006|-99.2694851|19.360798000000003,-99.2694851|15.315136707630115 km
  Calle Duna Edificio 40 Depto 1 Unidad Habitacional Patera Vallejo, Vallejo, Ciudad De México|7200|3|1.0|80|19.5027865|-99.1544184|19.5027865,-99.1544184|10.40802378332049 km
  Oasis 94, Clavería, Azcapotzalco, Distrito Federal (cdmx)|13000|3|1.0|94|19.46637|-99.1817288|19.46637,-99.18172879999999|7.957494615427222 km
  Chicago 98, Nápoles, Benito Juárez, Distrito Federal (cdmx)|58215|3|3.0|190|19.3963503|-99.1758478|19.396350299999998,-99.1758478|4.722102550945815 km
  Jose Rosas Moreno 96, San Rafael, Cuauhtémoc, Distrito Federal (cdmx)|20500|2|1.0|74|19.4368225|-99.1620265|19.4368225,-99.1620265|4.145431278731713 km
  Andres De La Concha 10, San José Insurgentes, Benito Juárez, Distrito Federal (cdmx)|18000|2|2.0|120|19.3687256|-99.1868552|19.3687256,-99.1868552|7.286060544262255 km
  Ahuehuetes Nte 1275, 401, Bosques De Las Lomas, Cuajimalpa De Morelos|54000|3|3.0|305|19.3986208|-99.2557117|19.3986208,-99.2557117|12.900155023131774 km
  7 (periferico Oriental), Iztacalco, Distrito Federal (cdmx)|6000|2|1.0|45|19.3971015|-99.0584708|19.3971015,-99.0584708|8.03428898102293 km
  Av.jardín 330 Colonia Del Gas, Azcapotzalco, Distrito Federal (cdmx)|9500|2|2.0|76|19.468983|-99.1595607|19.468982999999998,-99.15956070000001|6.988176790325694 km
  Av Tamaulipas 1236, Álvaro Obregón, Distrito Federal (cdmx)|9200|1|1.0|39|19.3650508|-99.2415788|19.3650508,-99.2415788|12.427435572611401 km
  Revolucion 1185, Merced Gomez, Álvaro Obregón, Distrito Federal (cdmx)|15000|2|2.0|65|19.3637814|-99.1893241|19.363781399999997,-99.1893241|7.839886128603038 km
  Juan Augusto Ingres 143, Santa Maria Nonoalco, Benito Juárez, Distrito Federal (cdmx)|13000|2|1.0|65|19.383029500000006|-99.1889104|19.383029500000003,-99.18891040000001|6.578856210765352 km
  Encinos 65, Tlalpan, Distrito Federal (cdmx)|11500|2|2.0|90|19.2716716|-99.208495|19.2716716,-99.208495|17.302960589883423 km
  Encinos 65, Tlalpan, Distrito Federal (cdmx)|11500|2|2.0|90|19.2716716|-99.208495|19.2716716,-99.208495|17.302960589883423 km
  Popocatepetl 415, 604, Santa Cruz Atoyac, Benito Juárez, Distrito Federal (cdmx)|22000|2|2.0|86|19.3648302|-99.16136259999999|19.3648302,-99.1613626|5.872934192464612 km
  Heraclito 2, Polanco V Sección, Miguel Hidalgo, Distrito Federal (cdmx)|48000|3|2.0|254|19.4324596|-99.19034909999999|19.4324596,-99.1903491|6.424012274087791 km
  Departamento En Renta En Carrimon De 3 Recamaras, Bosques De Las Lomas, Bosques De Las Lomas, Cuajimalpa De Morelos|50000|3|3.0|290|19.3853815|-99.2541083|19.3853815,-99.2541083|12.97133341778986 km
  Adolfo Prieto 1033, 402, Del Valle, Benito Juárez, Distrito Federal (cdmx)|30000|2|3.0|116|19.386347600000004|-99.16909509999999|19.386347600000004,-99.1690951|4.613900836306483 km
  Tiztik 9 Teotihuacan, Ciudad De México, Distrito Federal (cdmx)|14500|2|2.0|130|19.3613019|-99.1884152|19.361301899999997,-99.1884152|7.955607261283531 km
  Av. Cuauhtémoc 997, 5, Narvarte, Benito Juárez, Distrito Federal (cdmx)|19900|2|2.0|105|19.3825328|-99.1584744|19.3825328,-99.1584744|4.08395425388813 km
  Avenida Mexico Coyoacan 0, Xoco, Benito Juárez, Distrito Federal (cdmx)|18500|2|2.0|80|19.362775|-99.1634115|19.362775,-99.1634115|6.177771591028552 km
  Avenida Mariano Escobedo, Esquina Con Lago Alberto, Colonia Anáhuac, 11490 Ciudad De México, Cdmx, Miguel Hidalgo, Distrito Federal (cdmx)|30000|2|2.0|110|19.4397908|-99.18352469999999|19.4397908,-99.1835247|6.145833704935825 km
  Departamento En Renta En Aquario Con 2 Recamaras En Interlomas., Jesús Del Monte, Cuajimalpa De Morelos|23500|2|1.0|140|19.383654|-99.2917621|19.383654,-99.2917621|16.88689175565179 km
  Jose Moran 00, San Miguel Chapultepec, Miguel Hidalgo, Distrito Federal (cdmx)|32000|2|2.0|150|19.4096184|-99.1862618|19.4096184,-99.1862618|5.535613765458139 km
  Zurich 272, Ampliación Granada, Miguel Hidalgo, Distrito Federal (cdmx)|46000|3|4.0|162|19.4413824|-99.20284759999998|19.4413824,-99.20284759999998|8.021190939160363 km
  Cda. De Guillermo Prieto 38, Jesús Del Monte, Cuajimalpa De Morelos|15000|2|3.0|134|19.3749968|-99.2955|19.374996799999998,-99.2955|17.466437054941554 km
  Departamento En Renta En Bosques De Las Lomas De 3 Recamaras, Cdmx, Bosques De Las Lomas, Cuajimalpa De Morelos|46000|3|3.0|292|19.3904162|-99.2550003|19.390416199999997,-99.2550003|12.953679035900743 km
  León Trotsky 58, 58, Romero Rubio, Venustiano Carranza, Distrito Federal (cdmx)|4800|2|1.0|50|19.4463679|-99.1015011|19.4463679,-99.1015011|5.175816175477931 km
  Pennsylvania 229, 101, Nápoles, Benito Juárez, Distrito Federal (cdmx)|20500|2|2.0|98|19.3869789|-99.1773521|19.3869789,-99.1773521|5.30450519194503 km
  Lago Alberto 320, Miguel Hidalgo, Distrito Federal (cdmx)|38000|3|3.0|156|19.4405817|-99.1865548|19.4405817,-99.1865548|6.463704233925369 km
  Tarasco 52 Interior Depto 801, Edificio “n”, Colonia Degollado, Delegación Iztapalapa, Ciudad De Mexico, Desarrollo Urbano Quetzalcoatl, Ciudad De México|4000|2|1.0|50|19.358566600000003|-99.0732118|19.358566600000003,-99.0732118|8.586308552568473 km
  1, Acacias, Benito Juárez, Distrito Federal (cdmx)|30000|4|2.0|1|19.3638034|-99.1732124|19.3638034,-99.17321240000001|6.669296223395738 km
  Angel Urraza 1839, Independencia, Benito Juárez, Distrito Federal (cdmx)|17500|2|2.0|75|19.3799168|-99.1518631|19.3799168,-99.1518631|3.9279319932749956 km
  Arquimedes 200, Polanco, Miguel Hidalgo, Distrito Federal (cdmx)|27000|2|1.0|60|19.4366554|-99.1907925|19.436655399999996,-99.1907925|6.652865947889711 km
  Jesus Del Monte 0, 0, Jesús Del Monte, Cuajimalpa De Morelos|22000|2|2.0|100|19.365976|-99.29107619999999|19.365976,-99.2910762|17.27503410438235 km
  Blvd Adolfo Lopez Mateos 1951, Los Alpes, Álvaro Obregón, Distrito Federal (cdmx)|15000|1|2.0|60|19.3606836|-99.1924411|19.3606836,-99.1924411|8.312586382858184 km
  Paseo De Laureles 410, Bosques De Las Lomas, Miguel Hidalgo, Distrito Federal (cdmx)|38000|3|4.0|323|19.3800571|-99.26632049999999|19.380057100000002,-99.2663205|14.35485129430445 km
  Capricornio 73, Prado Churubusco, Coyoacán, Distrito Federal (cdmx)|14000|3|3.0|102|19.3548891|-99.1247671|19.3548891,-99.1247671|6.265225685621279 km
  Adolfo Prieto 1033, 102, Del Valle, Benito Juárez, Distrito Federal (cdmx)|30000|3|2.0|136|19.386347600000004|-99.16909509999999|19.386347600000004,-99.1690951|4.613900836306483 km
  Eje Central 1130, San Simon Ticumac, Benito Juárez, Distrito Federal (cdmx)|14500|2|1.0|70|19.3754112|-99.1487747|19.3754112,-99.1487747|4.237191910247462 km
  Departamento De 2 Niveles En Renta En Magna Residencial, Santa Fe., El Yaqui, Cuajimalpa De Morelos|30715|2|2.0|120|19.3628654|-99.283072|19.362865399999997,-99.283072|16.578816837338092 km
  Arquimedes 191, Polanco, Miguel Hidalgo, Distrito Federal (cdmx)|29000|2|2.0|167|19.4361783|-99.1905915|19.436178299999998,-99.19059150000001|6.611257244858043 km
  Independencia 1, Tizapan, Álvaro Obregón, Distrito Federal (cdmx)|13500|2|2.0|97|19.3381331|-99.1995779|19.3381331,-99.19957790000001|10.625679543604633 km
  Popocatepetl 00x, Santa Cruz Atoyac, Benito Juárez, Distrito Federal (cdmx)|19000|2|2.0|85|19.3643609|-99.16186929999999|19.3643609,-99.1618693|5.944505328460537 km
  Camino Real De Minas 17, Lomas De Los Angeles Del Pueblo Tetelpan, Álvaro Obregón, Distrito Federal (cdmx)|20000|2|3.0|150|19.346277800000006|-99.2127392|19.346277800000003,-99.2127392|10.967351304991306 km
  Cofre De Perote 220, Lomas De Chapultepec, Miguel Hidalgo, Distrito Federal (cdmx)|59000|3|4.0|298|19.426197100000003|-99.22246240000001|19.426197100000003,-99.2224624|9.488598815312773 km
  Calzada Desierto De Los Leones 4054, Ph 1, Atlamaya, Álvaro Obregón, Distrito Federal (cdmx)|42000|3|5.0|158|19.3470307|-99.2031199|19.3470307,-99.2031199|10.164199488306116 km
  Insurgentes Norte 57 Esquina Hamburgo, Departamento 9, Colonia Juarez, Benito Juárez, Distrito Federal (cdmx)|22000|4|2.0|140|19.4278064|-99.1610284|19.427806399999998,-99.1610284|3.439538086210056 km
  Paseo De La Reforma 284, Ciudad De México, Distrito Federal (cdmx)|22000|1|1.0|78|19.4278301|-99.1645999|19.4278301,-99.16459990000001|3.760865138933682 km
  Rafael Solana 5, Independencia, Benito Juárez, Distrito Federal (cdmx)|13200|2|2.0|70|19.3810355|-99.145823|19.3810355,-99.145823|3.5440409443757304 km
  Atenas 3, Lomas De Padierna, Tlalpan, Distrito Federal (cdmx)|2600|1|1.0|22|19.2742435|-99.2281609|19.2742435,-99.2281609|18.097059247734197 km
  Atenas 3, Lomas De Padierna, Tlalpan, Distrito Federal (cdmx)|2700|1|1.0|25|19.2742435|-99.2281609|19.2742435,-99.2281609|18.097059247734197 km
  Atenas 3, Lomas De Padierna, Tlalpan, Distrito Federal (cdmx)|3600|2|1.0|42|19.2742435|-99.2281609|19.2742435,-99.2281609|18.097059247734197 km
  Ibsen 0, Polanco, Miguel Hidalgo, Distrito Federal (cdmx)|1843475|4|5.0|470|19.4313793|-99.2014307|19.4313793,-99.2014307|7.479620790312071 km
  Prolongación Paseo De La Reforma 200, Paseo De Las Lomas, Álvaro Obregón, Distrito Federal (cdmx)|12000|1|2.0|113|19.3701439|-99.2660679|19.3701439,-99.2660679|14.629544741830559 km
  Thomas A Edison 139, San Rafael, Cuauhtémoc, Distrito Federal (cdmx)|15000|2|1.0|65|19.4383727|-99.1567523|19.4383727,-99.1567523|3.8982760068051725 km
  Enrique Rebsamen 227, Del Valle, Benito Juárez, Distrito Federal (cdmx)|20000|2|2.0|120|19.3994344|-99.1588824|19.399434399999997,-99.1588824|2.944148561139951 km
  Carretera Mexico Toluca 5095, El Yaqui, Cuajimalpa De Morelos|14500|1|1.0|40|19.3660268|-99.2727072|19.3660268,-99.2727072|15.435183808792566 km
  Barranca Del Muerto 212, San José Insurgentes, Benito Juárez, Distrito Federal (cdmx)|18500|2|2.0|70|19.3616159|-99.1838078|19.361615899999997,-99.1838078|7.5874365724268 km
  Paseo De Las Bugambilias 1000, 00, Bosques De Las Lomas, Cuajimalpa De Morelos|90000|3|4.0|395|19.3869299|-99.2689321|19.3869299,-99.2689321|14.462646685465845 km
  Elefante 93, Del Valle Sur, Benito Juárez, Distrito Federal (cdmx)|42000|3|5.0|300|19.3700014|-99.1772111|19.3700014,-99.1772111|6.440118748950735 km
  Amores 1609, Del Valle Centro, Benito Juárez, Distrito Federal (cdmx)|18000|2|2.0|96|19.3691439|-99.1701818|19.369143899999997,-99.1701818|6.009903923698341 km
  Cofré De Perote 0, 0, Lomas De Chapultepec Viii Sección, Miguel Hidalgo, Distrito Federal (cdmx)|60000|3|4.0|250|19.4260222|-99.2242748|19.4260222,-99.2242748|9.672566863012236 km
  Guanajuato 85, San Bartolo Atepehuacan, Gustavo A. Madero|14000|3|2.0|105|19.4943782|-99.14465|19.4943782,-99.14465|9.317379928589217 km
  Barranca Del Muerto 1, San José Insurgentes, Benito Juárez, Distrito Federal (cdmx)|25000|3|4.0|147|19.363697|-99.17905520000001|19.363697,-99.1790552|7.077454033983695 km
  Avenida Toluca 441, Colonia Olivar De Los Padres, Álvaro Obregón, Distrito Federal (cdmx)|13000|2|2.0|75|19.339641|-99.2167116|19.339641,-99.2167116|11.76631781388106 km
"  Santa Cruz Cacalco 25, 601 ""a"", Miguel Hidalgo, Distrito Federal (cdmx)"|8750|1|1.0|63|19.450690100000006|-99.20173869999999|19.450690100000003,-99.2017387|8.407031866282935 km
  Ingenieros Grabadores 11, Jardines De Churubusco, Iztapalapa|9000|3|1.0|84|19.3735251|-99.1066755|19.373525100000002,-99.1066755|5.0069961662021045 km
  Av Revolución 1400, Guadalupe Inn, Álvaro Obregón, Distrito Federal (cdmx)|20000|2|2.0|75|19.3563295|-99.1896089|19.3563295,-99.18960890000001|8.43185775997404 km
  11 De Abril 177 303 A, Ciudad De México, Distrito Federal (cdmx)|12500|2|1.0|120|19.3960468|-99.184039|19.3960468,-99.184039|5.54870879124203 km
  Montecito 57, Nápoles, Benito Juárez, Distrito Federal (cdmx)|25000|1|2.0|90|19.395326|-99.1737694|19.395326,-99.1737694|4.559014421398709 km
  Ave Revolucion 1062, 302, San José Insurgentes, Benito Juárez, Distrito Federal (cdmx)|17000|2|2.0|80|19.3681145|-99.1883503|19.368114499999997,-99.1883503|7.4501801005827355 km
  Av. Veracruz 62, Colonia Condesa, Cuauhtémoc, Distrito Federal (cdmx)|52000|2|2.0|128|19.4175483|-99.1740246|19.4175483,-99.1740246|4.312396685469476 km
  Adolfo Prieto 1033, 101, Del Valle, Benito Juárez, Distrito Federal (cdmx)|26500|3|2.0|117|19.386347600000004|-99.16909509999999|19.386347600000004,-99.1690951|4.613900836306483 km
  Santa Fe 1, Santa Fe, Álvaro Obregón, Distrito Federal (cdmx)|72000|3|4.0|240|19.3660336|-99.2621958|19.3660336,-99.2621958|14.393782407993488 km
  Montecito 57, Ampliación Napoles, Benito Juárez, Distrito Federal (cdmx)|25000|1|2.0|90|19.395326|-99.1737694|19.395326,-99.1737694|4.559014421398709 km
  Paseo De Las Palmas 515, Lomas De Reforma, Miguel Hidalgo, Distrito Federal (cdmx)|110000|2|3.0|250|19.4301984|-99.21227569999999|19.4301984,-99.2122757|8.538163264909523 km
  Jose Ma. Vertiz 1, Vertiz Narvarte, Benito Juárez, Distrito Federal (cdmx)|18000|1|1.0|60|19.4108649|-99.1491358|19.410864899999996,-99.1491358|1.634490700519671 km
  Granjas 38, Cuajimalpa De Morelos, Distrito Federal (cdmx)|14800|2|1.0|74|19.3822943|-99.2551798|19.3822943,-99.2551798|13.159261748548703 km
  Departamento En Renta En Bosques De Las Lomas Con 2 Recamaras., Bosques De Las Lomas, Cuajimalpa De Morelos|40000|2|2.0|250|19.3904162|-99.2550003|19.390416199999997,-99.2550003|12.953679035900743 km
  Camino A Santa Fe 1231, Santa Fe, Álvaro Obregón, Distrito Federal (cdmx)|11500|2|1.0|100|19.3898806|-99.203598|19.3898806,-99.203598|7.7133282945252155 km
  Prolongación Paseo De La Reforma 367, Cuajimalpa De Morelos, Distrito Federal (cdmx)|19000|2|2.0|97|19.3784892|-99.25549129999999|19.3784892,-99.2554913|13.2984531955608 km
  Calzada Del Hueso 621, Granjas Coapa, Tlalpan, Distrito Federal (cdmx)|11000|3|1.0|86|19.3021875|-99.1202756|19.3021875,-99.1202756|12.111264794643784 km
  Division Del Norte 3526, Coyoacán, Distrito Federal (cdmx)|17000|2|2.0|89|19.3255814|-99.139684|19.325581399999997,-99.139684|9.462594675978524 km
  Paseo De Las Palmas 800, Lomas De Chapultepec, Miguel Hidalgo, Distrito Federal (cdmx)|194050|2|3.0|620|19.428531600000003|-99.21608409999999|19.428531600000003,-99.2160841|8.883549547692107 km
  Paseo De Las Palmas 800, Lomas De Chapultepec, Miguel Hidalgo, Distrito Federal (cdmx)|62096|1|2.0|230|19.428531600000003|-99.21608409999999|19.428531600000003,-99.2160841|8.883549547692107 km
  Paseo De Las Palmas 800, Lomas De Chapultepec, Miguel Hidalgo, Distrito Federal (cdmx)|97025|3|4.0|360|19.428531600000003|-99.21608409999999|19.428531600000003,-99.2160841|8.883549547692107 km
  Paseo De Las Palmas 800, Lomas De Chapultepec, Miguel Hidalgo, Distrito Federal (cdmx)|523935|2|3.0|270|19.428531600000003|-99.21608409999999|19.428531600000003,-99.2160841|8.883549547692107 km
  Ing. Grabadores 11, Jardines De Churubusco, Iztapalapa|9000|3|1.0|84|19.3735251|-99.1066755|19.373525100000002,-99.1066755|5.0069961662021045 km
  Inglaterra 105, 1er Piso, Parque San Andres, Coyoacán, Distrito Federal (cdmx)|16000|1|2.0|80|19.3441688|-99.1505835|19.3441688,-99.1505835|7.5964017303411895 km
  Estrasburgo 0, Juárez, Cuauhtémoc, Distrito Federal (cdmx)|17000|2|1.0|60|19.4267254|-99.1652709|19.4267254,-99.16527090000001|3.763524083329251 km
  Periférico Sur 4860, 5, Xochimilco, Distrito Federal (cdmx)|20000|2|2.0|85|19.3012338|-99.1635945|19.301233800000002,-99.16359449999999|12.539161119700312 km
  Calzada México-tacuba 1501, Distrito Federal (cdmx)|10500|2|1.0|58|19.4555037|-99.2112174|19.455503699999998,-99.21121740000001|9.534189898272478 km
  Lago Zurich 272, 810, Ampliación Granada, Miguel Hidalgo, Distrito Federal (cdmx)|46000|3|5.0|162|19.4414677|-99.202496|19.4414677,-99.202496|7.99171085752397 km
  Av Anacahuita 26, Distrito Federal (cdmx)|679175|2|1.0|20|19.3342897|-99.16990899999999|19.3342897,-99.169909|9.296644517059491 km
  Cerrada De Tamarindos 0, 0, Bosques De Las Lomas, Cuajimalpa De Morelos|33000|3|4.0|218|19.3855147|-99.2533303|19.385514699999998,-99.2533303|12.888357811938217 km
  Rubén Darío 275, Polanco, Miguel Hidalgo, Distrito Federal (cdmx)|1455375|2|3.0|390|19.4263008|-99.1911453|19.4263008,-99.1911453|6.283242554214203 km
  Peral 26, Santa Maria La Ribera, Cuauhtémoc, Distrito Federal (cdmx)|12500|2|2.0|67|19.4543423|-99.1622723|19.4543423,-99.1622723|5.678421566176627 km
  Providencia 1000, Del Valle, Benito Juárez, Distrito Federal (cdmx)|16000|2|2.0|86|19.3854505|-99.1701577|19.3854505,-99.1701577|4.7626089653624835 km
  Gómez Farias 23a, Bejero, 01340 Ciudad De México, Álvaro Obregón, Distrito Federal (cdmx)|4500|6|1.0|9|19.3800728|-99.2456569|19.3800728,-99.2456569|12.256850196332888 km
  Sur 79 353, Venustiano Carranza, Distrito Federal (cdmx)|5500|1|1.0|48|19.4167154|-99.123764|19.416715399999998,-99.12376400000001|1.2168411591155457 km
  General Pedro Antonio De Los Santos 0, 203, San Miguel Chapultepec, Miguel Hidalgo, Distrito Federal (cdmx)|17000|3|2.0|110|19.4103796|-99.1831385|19.4103796,-99.1831385|5.206111539653543 km
  Avenida Tecamachalco 31, Reforma Social, Miguel Hidalgo, Distrito Federal (cdmx)|25500|1|1.0|65|19.4332289|-99.211299|19.4332289,-99.211299|8.530069748540138 km
  Suderman 1, 3, Polanco, Miguel Hidalgo, Distrito Federal (cdmx)|55000|2|2.0|140|19.4354037|-99.1840781|19.4354037,-99.1840781|5.959125310786133 km
  Periferico Sur 4091, Tlalpan, Distrito Federal (cdmx)|5500|1|1.0|132|19.3064279|-99.211316|19.3064279,-99.211316|14.155284624185485 km
  Lago Margarita 34, Granada, Miguel Hidalgo, Distrito Federal (cdmx)|20500|2|2.0|68|19.4386749|-99.1873782|19.4386749,-99.1873782|6.434715944024522 km
  Calle Lago Zurich 245, Colonia Irrigación, Miguel Hidalgo, Distrito Federal (cdmx)|70000|2|3.0|120|19.4416485|-99.2039108|19.4416485,-99.2039108|8.134890007194127 km
  Ph En Renta De 2 Niveles En Polanco, Miguel Hidalgo, Cdmx, Polanco, Miguel Hidalgo, Distrito Federal (cdmx)|1067275|3|3.0|250|19.4453749|-99.1817107|19.445374899999997,-99.18171070000001|6.336273837958467 km
  Goldsmith 37, Polanco, Miguel Hidalgo, Distrito Federal (cdmx)|75000|3|4.0|180|19.4303519|-99.20065699999999|19.430351899999998,-99.200657|7.36816847498175 km
  Víctor Hugo 17, 401, Portales Oriente, Benito Juárez, Distrito Federal (cdmx)|10000|2|1.0|80|19.3688216|-99.1381447|19.3688216,-99.1381447|4.678968977910246 km
  Reforma 222, Juárez, Cuauhtémoc, Distrito Federal (cdmx)|28000|1|2.0|75|19.4285853|-99.1617883|19.4285853,-99.1617883|3.553560471318367 km
  Prolongacion Ocote 64, Cuajimalpa De Morelos, Distrito Federal (cdmx)|8950|2|2.0|64|19.37245|-99.291322|19.37245,-99.291322|17.107371137370468 km
  Lago Alberto 300, 710, Colonia Anahuac I Sección, Miguel Hidalgo, Distrito Federal (cdmx)|19800|1|1.0|52|19.4400628|-99.18302659999999|19.4400628,-99.1830266|6.117094012036179 km
  Plaza Rio De Janeiro 56, Cuauhtémoc, Cuauhtémoc, Distrito Federal (cdmx)|19200|2|1.0|80|19.4210467|-99.15973609999999|19.4210467,-99.1597361|2.9698615917493556 km
  Xicohténcatl 137, Colonia Del Carmen, Coyoacán, Distrito Federal (cdmx)|10000|1|1.0|65|19.3548977|-99.1544151|19.3548977,-99.1544151|6.571046794026104 km
  Anillo Perif. Blvd. Adolfo López Mateos 5146, Coyoacán, Distrito Federal (cdmx)|28000|2|2.0|105|19.3038798|-99.1771867|19.3038798,-99.17718670000001|12.698618392216995 km
  Siete 190, Coyoacán, Distrito Federal (cdmx)|15800|3|2.0|110|19.314216100000003|-99.1358408|19.314216100000003,-99.1358408|10.701539056756502 km
  Homero 246, Polanco, Miguel Hidalgo, Distrito Federal (cdmx)|873225|3|3.0|280|19.435475600000004|-99.19167159999999|19.435475600000004,-99.1916716|6.682097726089238 km
  Avenida Mariano Escobedo, Lago Iseo Esquina 0, Cuauhtémoc, Distrito Federal (cdmx)|30000|2|2.0|94|19.4397908|-99.18352469999999|19.4397908,-99.1835247|6.145833704935825 km
  Lago Alberto 321, Colonia Anahuac I Sección, Miguel Hidalgo, Distrito Federal (cdmx)|19850|1|1.0|55|19.4401734|-99.1880532|19.4401734,-99.1880532|6.577249166054965 km
  Av. Revolución 1, San José Insurgentes, Benito Juárez, Distrito Federal (cdmx)|21000|2|2.0|103|19.3785332|-99.187561|19.3785332,-99.187561|6.705951607714387 km
  Peten 543, 4, Letrán Valle, Benito Juárez, Distrito Federal (cdmx)|18000|3|2.0|103|19.3785537|-99.154916|19.378553699999998,-99.154916|4.221415083467369 km
  Paseo De La Reforma 222, Distrito Federal (cdmx)|33000|2|2.0|120|19.4286725|-99.1616682|19.4286725,-99.16166820000001|3.5484012971594887 km
  Palo Alto 73, Cuajimalpa De Morelos, Distrito Federal (cdmx)|14000|2|2.0|65|19.38268|-99.2561818|19.38268,-99.2561818|13.251317728967518 km
  Palo Alto 73, Cuajimalpa De Morelos, Distrito Federal (cdmx)|17000|2|2.0|75|19.38268|-99.2561818|19.38268,-99.2561818|13.251317728967518 km
  Río Nazas 152, Ciudad De México, Distrito Federal (cdmx)|19000|2|2.0|100|19.4305629|-99.1705617|19.430562899999998,-99.17056170000001|4.454675012894443 km
  Prolongación Avenida Vasco De Quiroga 3850, Cuajimalpa De Morelos, Distrito Federal (cdmx)|20000|2|2.0|91|19.3607488|-99.2752758|19.3607488,-99.27527579999999|15.88563025788739 km
  Guaymas 33, Roma Norte, Cuauhtémoc, Distrito Federal (cdmx)|18000|3|2.0|95|19.4239288|-99.1550366|19.4239288,-99.15503659999999|2.678053267256346 km
  Manuel Avila Camacho 166, 102, Lomas De Chapultepec, Miguel Hidalgo, Distrito Federal (cdmx)|19500|2|2.0|140|19.434078|-99.2112666|19.434078,-99.2112666|8.554553270965089 km
  Manuel Avila Camacho 166, 102, Lomas De Chapultepec, Miguel Hidalgo, Distrito Federal (cdmx)|19500|2|2.0|80|19.434078|-99.2112666|19.434078,-99.2112666|8.554553270965089 km
  Moras 1254, Álvaro Obregón, Distrito Federal (cdmx)|14000|1|1.0|20|19.3584142|-99.1777706|19.3584142,-99.17777059999999|7.434299393989363 km
  Moras 1254, Álvaro Obregón, Distrito Federal (cdmx)|28000|2|2.0|45|19.3584142|-99.1777706|19.3584142,-99.17777059999999|7.434299393989363 km
  Encarnación Ortiz 1860, Azcapotzalco, Distrito Federal (cdmx)|18000|3|2.0|80|19.4714503|-99.1613575|19.4714503,-99.1613575|7.3135970587742465 km
  Encarnación Ortiz 1860, Azcapotzalco, Distrito Federal (cdmx)|13000|2|2.0|65|19.4714503|-99.1613575|19.4714503,-99.1613575|7.3135970587742465 km
  Manuel Avila Camacho 166, 102, Lomas De Chapultepec, Miguel Hidalgo, Distrito Federal (cdmx)|19500|2|2.0|140|19.434078|-99.2112666|19.434078,-99.2112666|8.554553270965089 km
  Manuel Avila Camacho 166, 102, Lomas De Chapultepec, Miguel Hidalgo, Distrito Federal (cdmx)|19500|2|2.0|80|19.434078|-99.2112666|19.434078,-99.2112666|8.554553270965089 km
  Paseo De La Reforma 439, Cuauhtémoc, Distrito Federal (cdmx)|89000|2|2.0|180|19.4256497|-99.1723516|19.4256497,-99.1723516|4.389148999321045 km
  Inglaterra 105, Parque San Andres, Coyoacán, Distrito Federal (cdmx)|16000|1|1.0|80|19.3441688|-99.1505835|19.3441688,-99.1505835|7.5964017303411895 km
  Inglaterra 105, Parque San Andres, Coyoacán, Distrito Federal (cdmx)|16000|1|1.0|80|19.3441688|-99.1505835|19.3441688,-99.1505835|7.5964017303411895 km
  Inglaterra 105, Parque San Andres, Coyoacán, Distrito Federal (cdmx)|16000|1|1.0|80|19.3441688|-99.1505835|19.3441688,-99.1505835|7.5964017303411895 km
  Indianapolis 4, Nápoles, Benito Juárez, Distrito Federal (cdmx)|22500|2|2.0|64|19.394105300000003|-99.1774246|19.394105300000003,-99.1774246|4.965603767674172 km
  Palo Alto 73, Cuajimalpa De Morelos, Distrito Federal (cdmx)|14000|2|2.0|65|19.38268|-99.2561818|19.38268,-99.2561818|13.251317728967518 km
  Palo Alto 73, Cuajimalpa De Morelos, Distrito Federal (cdmx)|17000|2|2.0|75|19.38268|-99.2561818|19.38268,-99.2561818|13.251317728967518 km
  Sagredo 253, Álvaro Obregón, Distrito Federal (cdmx)|25800|2|2.0|48|19.3613167|-99.1885042|19.3613167,-99.1885042|7.961250888403458 km
  Sagredo 253, Álvaro Obregón, Distrito Federal (cdmx)|19980|1|1.0|36|19.3613167|-99.1885042|19.3613167,-99.1885042|7.961250888403458 km
  Av. Cuauhtémoc 1, Del Valle, Benito Juárez, Distrito Federal (cdmx)|20200|2|1.0|69|19.4060261|-99.1551492|19.406026100000002,-99.15514920000001|2.3286095102820163 km
  Avenida Revolucion 000, San José Insurgentes, Benito Juárez, Distrito Federal (cdmx)|19000|2|2.0|103|19.3676615|-99.1886542|19.3676615,-99.1886542|7.506717668203255 km
  Av Cuauhtemoc 514, Narvarte, Benito Juárez, Distrito Federal (cdmx)|15000|2|2.0|62|19.3996034|-99.1555014|19.3996034,-99.1555014|2.6189867027775358 km
  Campos Elíseos 1, Polanco, Miguel Hidalgo, Distrito Federal (cdmx)|50000|3|3.0|274|19.4287872|-99.1803683|19.4287872,-99.1803683|5.299857666324109 km
  Av. Del Iman 141, 3, Insurgentes Cuicuilco, Coyoacán, Distrito Federal (cdmx)|12000|2|1.0|70|19.3071821|-99.1815155|19.307182100000002,-99.1815155|12.534129910918288 km
  San Guillermo Lote 1 Mz 19 Col. Pedregal De Santa Ursula, Ciudad De México, Distrito Federal (cdmx)|4000|1|1.0|12|19.3109425|-99.1625881|19.3109425,-99.1625881|11.47361394879557 km
  Inglaterra 105, Parque San Andres, Coyoacán, Distrito Federal (cdmx)|16000|1|1.0|80|19.3441688|-99.1505835|19.3441688,-99.1505835|7.5964017303411895 km
  Inglaterra 105, Parque San Andres, Coyoacán, Distrito Federal (cdmx)|16000|1|1.0|80|19.3441688|-99.1505835|19.3441688,-99.1505835|7.5964017303411895 km
  Inglaterra 105, Parque San Andres, Coyoacán, Distrito Federal (cdmx)|16000|1|1.0|80|19.3441688|-99.1505835|19.3441688,-99.1505835|7.5964017303411895 km
  Inglaterra 105, Parque San Andres, Coyoacán, Distrito Federal (cdmx)|16000|1|1.0|80|19.3441688|-99.1505835|19.3441688,-99.1505835|7.5964017303411895 km
  Inglaterra 105, Parque San Andres, Coyoacán, Distrito Federal (cdmx)|16000|1|1.0|80|19.3441688|-99.1505835|19.3441688,-99.1505835|7.5964017303411895 km
  Inglaterra 105, Parque San Andres, Coyoacán, Distrito Federal (cdmx)|16000|1|1.0|80|19.3441688|-99.1505835|19.3441688,-99.1505835|7.5964017303411895 km
  Privada Veracruz 13, Cuajimalpa De Morelos, Distrito Federal (cdmx)|15500|3|3.0|166|19.3780713|-99.2969621|19.378071300000002,-99.29696209999999|17.542296566824486 km
  Tlálpan 1461, Portales Oriente, Benito Juárez, Distrito Federal (cdmx)|12500|2|2.0|70|19.364967|-99.1428406|19.364967,-99.1428406|5.173366284456286 km
  Plaza Valverde 60, Álvaro Obregón, Distrito Federal (cdmx)|29400|3|2.0|117|19.3393016|-99.193528|19.3393016,-99.193528|10.120698354357284 km
  Ibsen 00, Polanco, Miguel Hidalgo, Distrito Federal (cdmx)|45000|2|2.0|170|19.4313793|-99.2014307|19.4313793,-99.2014307|7.479620790312071 km
  Departamento En Renta En Via Santa Fe Con 2 Recamaras, Álvaro Obregón, Distrito Federal (cdmx)|23000|2|2.0|97|19.3609821|-99.2686522|19.3609821,-99.2686522|15.226196216371557 km
  Pedro Romero De Terreros 730, Del Valle, Benito Juárez, Distrito Federal (cdmx)|24000|3|3.0|110|19.3942682|-99.16418900000001|19.3942682,-99.164189|3.7036262048552877 km
  Av Mexico 321, Coyoacán, Distrito Federal (cdmx)|26000|2|2.0|86|19.358366600000004|-99.1698871|19.358366600000004,-99.1698871|6.951696549986451 km
  Camino A Santa Fe 1231, 302, Álvaro Obregón, Distrito Federal (cdmx)|11000|2|1.0|80|19.3898806|-99.203598|19.3898806,-99.203598|7.7133282945252155 km
  Edgar Allan Poe 0, Polanco, Miguel Hidalgo, Distrito Federal (cdmx)|7664975|2|3.0|170|19.4335413|-99.1997739|19.4335413,-99.19977390000001|7.391778374534651 km
  Edgar Allan Poe 0, Polanco, Miguel Hidalgo, Distrito Federal (cdmx)|7664975|2|3.0|170|19.4335413|-99.1997739|19.4335413,-99.19977390000001|7.391778374534651 km
  Emerson 1, Polanco, Miguel Hidalgo, Distrito Federal (cdmx)|37000|2|2.0|191|19.433530800000003|-99.1888509|19.433530800000003,-99.1888509|6.324314647387018 km
  Viaducto Tlalpan 000, 000, Tlalpan, Distrito Federal (cdmx)|14300|3|3.0|123|19.2898477|-99.1522034|19.2898477,-99.1522034|13.538613133507736 km
  3 Picos 12, Polanco, Miguel Hidalgo, Distrito Federal (cdmx)|97025|3|3.0|250|19.4284413|-99.1863053|19.4284413,-99.1863053|5.869901412414018 km
  Coyoacan 0, Del Valle Centro, Benito Juárez, Distrito Federal (cdmx)|23000|2|2.0|140|19.3842782|-99.1678414|19.3842782,-99.16784140000001|4.649612615550637 km
  Ph En Renta De 2 Niveles En Polanco., Polanco, Miguel Hidalgo, Distrito Federal (cdmx)|45000|3|2.0|305|19.4453749|-99.1817107|19.445374899999997,-99.18171070000001|6.336273837958467 km
  Río Sena 67, 203, Cuauhtémoc, Distrito Federal (cdmx)|29000|2|2.0|100|19.430421300000006|-99.1662906|19.430421300000003,-99.1662906|4.061056784859428 km
  Paseo De La Reforma 222, Cuauhtémoc, Distrito Federal (cdmx)|45000|2|2.0|125|19.4286725|-99.1616682|19.4286725,-99.16166820000001|3.5484012971594887 km
  Av. Santa Fe 449, Loma De Santa Fe, Cuajimalpa De Morelos|4000000|3|2.0|173|19.3621383|-99.26670329999999|19.3621383,-99.2667033|14.989013092064612 km
  Lago Neuchatel 10, Ampliación Granada, Miguel Hidalgo, Distrito Federal (cdmx)|28500|3|2.0|125|19.4423271|-99.20165159999999|19.4423271,-99.2016516|7.952661528136879 km
  Lago Neuchatel 10, Ampliación Granada, Miguel Hidalgo, Distrito Federal (cdmx)|28500|3|2.0|125|19.4423271|-99.20165159999999|19.4423271,-99.2016516|7.952661528136879 km
  Lope De Vega 237, Polanco, Miguel Hidalgo, Distrito Federal (cdmx)|30000|1|1.0|70|19.4341567|-99.1873743|19.4341567,-99.1873743|6.210696998269398 km
  Lago Alberto 32o, 25, Granada, Miguel Hidalgo, Distrito Federal (cdmx)|35000|3|2.0|150|19.4399893|-99.1852486|19.4399893,-99.1852486|6.31226747820007 km
  San Camilo 26, 702, Tlalpan, Distrito Federal (cdmx)|10000|2|1.0|55|19.28656|-99.1321471|19.28656,-99.1321471|13.761115723651761 km
  Cuitláhuac 94, Gustavo A. Madero, Distrito Federal (cdmx)|12000|3|2.0|95|19.473083|-99.14922109999999|19.473083,-99.1492211|7.080468602624326 km
  Constituyente Amilcar Vidal 149, Lomas De Memetla, Distrito Federal (cdmx)|8000|1|1.0|65|19.3583576|-99.2866262|19.3583576,-99.2866262|17.096260775619697 km
  Arneses 10, Iztapalapa, Distrito Federal (cdmx)|11000|3|1.0|81|19.3560149|-99.1101435|19.356014899999998,-99.1101435|6.551819852013581 km
  Juan Sanchez Azcona 1426, 104, Del Valle Sur, Benito Juárez, Distrito Federal (cdmx)|17000|1|1.0|80|19.3767641|-99.1642438|19.3767641,-99.1642438|4.962862040601231 km
  Eugenio Sue 0, Polanco, Miguel Hidalgo, Distrito Federal (cdmx)|66000|2|3.0|170|19.4377529|-99.1935959|19.4377529,-99.1935959|6.9709353762599875 km
  Azalea 152, La Magdalena Contreras, Distrito Federal (cdmx)|11500|2|2.0|140|19.314178100000003|-99.2460849|19.314178100000003,-99.2460849|15.946267833510046 km
  Azalea 152, La Magdalena Contreras, Distrito Federal (cdmx)|11500|2|2.0|140|19.314178100000003|-99.2460849|19.314178100000003,-99.2460849|15.946267833510046 km
  Azalea 152, La Magdalena Contreras, Distrito Federal (cdmx)|13500|2|2.0|140|19.314178100000003|-99.2460849|19.314178100000003,-99.2460849|15.946267833510046 km
  Azalea 152, La Magdalena Contreras, Distrito Federal (cdmx)|11500|2|2.0|140|19.314178100000003|-99.2460849|19.314178100000003,-99.2460849|15.946267833510046 km
  Azalea 152, La Magdalena Contreras, Distrito Federal (cdmx)|11500|2|2.0|140|19.314178100000003|-99.2460849|19.314178100000003,-99.2460849|15.946267833510046 km
  Azalea 152, La Magdalena Contreras, Distrito Federal (cdmx)|13500|2|2.0|140|19.314178100000003|-99.2460849|19.314178100000003,-99.2460849|15.946267833510046 km
  Cardos 6, Tlalpan, Distrito Federal (cdmx)|5500|3|1.0|64|19.27613|-99.2062151|19.27613,-99.2062151|16.75443728015263 km
  Cardos 6, Tlalpan, Distrito Federal (cdmx)|5500|3|1.0|64|19.27613|-99.2062151|19.27613,-99.2062151|16.75443728015263 km
  Cardos 6, Tlalpan, Distrito Federal (cdmx)|5500|3|1.0|64|19.27613|-99.2062151|19.27613,-99.2062151|16.75443728015263 km
  Horacio 1609, 1001, Polanco, Miguel Hidalgo, Distrito Federal (cdmx)|25000|3|2.0|130|19.4356965|-99.20767459999999|19.4356965,-99.2076746|8.253398661779789 km
  Adolfo Prieto 125, Del Valle, Benito Juárez, Distrito Federal (cdmx)|26000|3|3.0|165|19.399095300000006|-99.1660784|19.399095300000003,-99.1660784|3.6543310100884714 km
  Homero 0, 9, Polanco, Miguel Hidalgo, Distrito Federal (cdmx)|40000|3|2.0|190|19.4359961|-99.1980942|19.4359961,-99.1980942|7.324876401369131 km
  Campos Elíseos 0, Polanco, Miguel Hidalgo, Distrito Federal (cdmx)|1261325|3|4.0|213|19.4272576|-99.19360440000001|19.4272576,-99.1936044|6.560639263023234 km
  Juarez Y Zarco  12, Cuajimalpa De Morelos, Distrito Federal (cdmx)|15000|2|2.0|60|19.3544035|-99.2949992|19.3544035,-99.2949992|18.072786822436463 km
  Prolongacion Paseo De La Reforma 307, 4, Lomas De Santa Fe, Álvaro Obregón, Distrito Federal (cdmx)|21000|2|2.0|74|19.3795682|-99.2538313|19.3795682,-99.2538313|13.098482373553848 km
  Pablo Ucello 51, Ciudad De México, Distrito Federal (cdmx)|16600|2|2.0|110|19.3822208|-99.1830482|19.382220800000002,-99.1830482|6.087861525403986 km
  Río Sena 67, 203 A, Cuauhtémoc, Distrito Federal (cdmx)|27000|2|2.0|100|19.430421300000006|-99.1662906|19.430421300000003,-99.1662906|4.061056784859428 km
  Lago Constanza 27, Granada, Miguel Hidalgo, Distrito Federal (cdmx)|20500|2|2.0|68|19.4491086|-99.18688759999999|19.449108600000002,-99.1868876|7.019162922088312 km
  Azalea 152, La Magdalena Contreras, Distrito Federal (cdmx)|11500|2|2.0|140|19.314178100000003|-99.2460849|19.314178100000003,-99.2460849|15.946267833510046 km
  Azalea 152, La Magdalena Contreras, Distrito Federal (cdmx)|11500|2|2.0|140|19.314178100000003|-99.2460849|19.314178100000003,-99.2460849|15.946267833510046 km
  Azalea 152, La Magdalena Contreras, Distrito Federal (cdmx)|13500|2|2.0|140|19.314178100000003|-99.2460849|19.314178100000003,-99.2460849|15.946267833510046 km
  Sagredo 253 Colonia Guadalupe Inn, Guadalupe Inn, Álvaro Obregón, Distrito Federal (cdmx)|4317613|2||43|19.3613167|-99.1885042|19.3613167,-99.1885042|7.961250888403458 km
  Sagredo 253 Colonia Guadalupe Inn, Guadalupe Inn, Álvaro Obregón, Distrito Federal (cdmx)|2361589|1||27|19.3613167|-99.1885042|19.3613167,-99.1885042|7.961250888403458 km
  Periferico Sur 4091, Ciudad De México, Distrito Federal (cdmx)|12000|4|3.0|120|19.3064279|-99.211316|19.3064279,-99.211316|14.155284624185485 km
  General Pedro Antonio De Los Santos 0, 204, San Miguel Chapultepec, Miguel Hidalgo, Distrito Federal (cdmx)|17000|3|2.0|150|19.4103796|-99.1831385|19.4103796,-99.1831385|5.206111539653543 km
  Eugenio Sue 200, Polanco, Miguel Hidalgo, Distrito Federal (cdmx)|65000|3|3.0|208|19.4341173|-99.1941518|19.4341173,-99.19415179999999|6.862994325062114 km
  Moliere 340 B Polanco M. Hidalgo Cdmx, Polanco, Miguel Hidalgo, Distrito Federal (cdmx)|30000|2|1.0|110|19.437172600000004|-99.2012363|19.437172600000004,-99.2012363|7.6795832628939875 km
  Francisco Petrarca 139, Polanco, Miguel Hidalgo, Distrito Federal (cdmx)|873225|3|3.0|177|19.4362197|-99.1857304|19.4362197,-99.1857304|6.15474077870679 km
  Coahuila 159, Roma Norte, Cuauhtémoc, Distrito Federal (cdmx)|32000|2|2.0|150|19.411271300000006|-99.1633655|19.411271300000003,-99.1633655|3.129365196278485 km
  Cardos 6, Tlalpan, Distrito Federal (cdmx)|5500|3|1.0|64|19.27613|-99.2062151|19.27613,-99.2062151|16.75443728015263 km
  Cardos 6, Tlalpan, Distrito Federal (cdmx)|5500|3|1.0|64|19.27613|-99.2062151|19.27613,-99.2062151|16.75443728015263 km
  Cardos 6, Tlalpan, Distrito Federal (cdmx)|5500|3|1.0|64|19.27613|-99.2062151|19.27613,-99.2062151|16.75443728015263 km
  Anatole France 0, Polanco, Miguel Hidalgo, Distrito Federal (cdmx)|54334|2|3.0|210|19.4311987|-99.1976385|19.4311987,-99.1976385|7.094809554771575 km
  Insurgentes Sur 297, Ciudad De México, Distrito Federal (cdmx)|24000|3|2.0|115|19.414802|-99.1659622|19.414801999999998,-99.1659622|3.4295197303082614 km
  Cardos 6, Tlalpan, Distrito Federal (cdmx)|5500|3|1.0|64|19.27613|-99.2062151|19.27613,-99.2062151|16.75443728015263 km
  Cardos 6, Tlalpan, Distrito Federal (cdmx)|5500|3|1.0|64|19.27613|-99.2062151|19.27613,-99.2062151|16.75443728015263 km
  Cardos 6, Tlalpan, Distrito Federal (cdmx)|5500|3|1.0|64|19.27613|-99.2062151|19.27613,-99.2062151|16.75443728015263 km
  Canalito 1, Progreso Tizapan, Álvaro Obregón, Distrito Federal (cdmx)|13000|2|1.0|68|19.3401218|-99.2062534|19.3401218,-99.20625340000001|10.937332361456873 km
  Paseo De Las Palmas 800, Lomas De Chapultepec, Miguel Hidalgo, Distrito Federal (cdmx)|194050|2|3.0|620|19.428531600000003|-99.21608409999999|19.428531600000003,-99.2160841|8.883549547692107 km
  Paseo De Las Palmas 800, Lomas De Chapultepec, Miguel Hidalgo, Distrito Federal (cdmx)|62096|1|2.0|230|19.428531600000003|-99.21608409999999|19.428531600000003,-99.2160841|8.883549547692107 km
  Paseo De Las Palmas 800, Lomas De Chapultepec, Miguel Hidalgo, Distrito Federal (cdmx)|97025|3|4.0|360|19.428531600000003|-99.21608409999999|19.428531600000003,-99.2160841|8.883549547692107 km
  Paseo De Las Palmas 800, Lomas De Chapultepec, Miguel Hidalgo, Distrito Federal (cdmx)|523935|2|3.0|270|19.428531600000003|-99.21608409999999|19.428531600000003,-99.2160841|8.883549547692107 km
  Eugenio Sue 0, Pb, Polanco, Miguel Hidalgo, Distrito Federal (cdmx)|108000|3|4.0|250|19.4377529|-99.1935959|19.4377529,-99.1935959|6.9709353762599875 km
  Tekit 189-16, Colonia Heroes De Padierna, Tlalpan, Distrito Federal (cdmx)|6500|2|1.0|60|19.2876015|-99.2258515|19.2876015,-99.2258515|16.7389356446265 km
  Tekit 189-16, Colonia Heroes De Padierna, Tlalpan, Distrito Federal (cdmx)|5200|2|1.0|60|19.2876015|-99.2258515|19.2876015,-99.2258515|16.7389356446265 km
  Salamanca 0, Roma Norte, Cuauhtémoc, Distrito Federal (cdmx)|14500|1|1.0|35|19.4205382|-99.1701058|19.4205382,-99.1701058|3.983438797330424 km
  Rancho Calichan 51, A-402, Tlalpan, Distrito Federal (cdmx)|10000|2|1.0|86|19.298158800000003|-99.12825550000001|19.298158800000003,-99.1282555|12.48886993926413 km
  Parroquia 411, Benito Juárez, Distrito Federal (cdmx)|21000|3|2.0|110|19.3701633|-99.1742779|19.3701633,-99.1742779|6.211563832242563 km
  Prolongación División Del Norte 4134, 1c, Tlalpan, Distrito Federal (cdmx)|12000|2|1.0|84|19.2945565|-99.1314271|19.2945565,-99.1314271|12.877097598669415 km
  Yaquis 1, Tlalpan, Distrito Federal (cdmx)|7500|2|1.0|72|19.2751896|-99.17243859999999|19.2751896,-99.1724386|15.564235656398496 km
  Yaquis 1, Tlalpan, Distrito Federal (cdmx)|4000|2|1.0|33|19.2751896|-99.17243859999999|19.2751896,-99.1724386|15.564235656398496 km
  Paseo De Las Palmas 800, Lomas De Chapultepec, Miguel Hidalgo, Distrito Federal (cdmx)|194050|2|3.0|620|19.428531600000003|-99.21608409999999|19.428531600000003,-99.2160841|8.883549547692107 km
  Paseo De Las Palmas 800, Lomas De Chapultepec, Miguel Hidalgo, Distrito Federal (cdmx)|62096|1|2.0|230|19.428531600000003|-99.21608409999999|19.428531600000003,-99.2160841|8.883549547692107 km
  Paseo De Las Palmas 800, Lomas De Chapultepec, Miguel Hidalgo, Distrito Federal (cdmx)|97025|3|4.0|360|19.428531600000003|-99.21608409999999|19.428531600000003,-99.2160841|8.883549547692107 km
  Paseo De Las Palmas 800, Lomas De Chapultepec, Miguel Hidalgo, Distrito Federal (cdmx)|523935|2|3.0|270|19.428531600000003|-99.21608409999999|19.428531600000003,-99.2160841|8.883549547692107 km
  Lago Como 128, 504, Miguel Hidalgo, Distrito Federal (cdmx)|11000|2|2.0|66|19.4464049|-99.1836748|19.4464049,-99.1836748|6.569653481915451 km
  Camino Antiguo Santa Fe, Numero 55, Corpus Christy, Álvaro Obregón, Distrito Federal (cdmx)|4200|2|2.0|70|19.3686704|-99.2573773|19.3686704,-99.25737729999999|13.818279865039383 km
  Lomas De Becerra Edif 7 Dep 1, Álvaro Obregón, Distrito Federal (cdmx)|9000|2|1.0|73|19.3849455|-99.2138697|19.384945499999997,-99.2138697|8.908957281884998 km
  Cholula 20, 301 Y 502, Miguel Hidalgo, Distrito Federal (cdmx)|29000|3|2.0|110|19.4306575|-99.20839529999999|19.430657500000002,-99.2083953|8.157764136429995 km
  Nelly Campobello 129, Álvaro Obregón, Distrito Federal (cdmx)|9000|2|2.0|73|19.3837964|-99.1971753|19.383796399999998,-99.1971753|7.32195825212382 km
  Patricio Sanz 1357, Tlacoquemecatl, Benito Juárez, Distrito Federal (cdmx)|28000|3|4.0|152|19.3773756|-99.1738399|19.3773756,-99.1738399|5.624433059294299 km
  Sagredo 253 Colonia Guadalupe Inn, Guadalupe Inn, Álvaro Obregón, Distrito Federal (cdmx)|4317613|2||43|19.3613167|-99.1885042|19.3613167,-99.1885042|7.961250888403458 km
  Sagredo 253 Colonia Guadalupe Inn, Guadalupe Inn, Álvaro Obregón, Distrito Federal (cdmx)|2361589|1||27|19.3613167|-99.1885042|19.3613167,-99.1885042|7.961250888403458 km
  Uman 11, Tlalpan, Distrito Federal (cdmx)|8500|3|1.0|80|19.2811336|-99.2283237|19.2811336,-99.2283237|17.474315410901514 km
  Av. F.f.cc. Nacionales 1940, Azcapotzalco, Distrito Federal (cdmx)|7800|2|1.0|60|19.4704246|-99.1905284|19.4704246,-99.1905284|8.901540658236028 km
  Ruben Dario 35, Polanco, Miguel Hidalgo, Distrito Federal (cdmx)|2425625|3|4.0|429|19.4300669|-99.1821687|19.4300669,-99.1821687|5.528536333536337 km
  Encinos 65, Tlalpan, Distrito Federal (cdmx)|11500|2|2.0|90|19.2716716|-99.208495|19.2716716,-99.208495|17.302960589883423 km
  Encinos 65, Tlalpan, Distrito Federal (cdmx)|11500|2|2.0|90|19.2716716|-99.208495|19.2716716,-99.208495|17.302960589883423 km
  Edgar Allan Poe 0, Polanco, Miguel Hidalgo, Distrito Federal (cdmx)|7664975|2|3.0|170|19.4335413|-99.1997739|19.4335413,-99.19977390000001|7.391778374534651 km
  Edgar Allan Poe 0, Polanco, Miguel Hidalgo, Distrito Federal (cdmx)|7664975|2|3.0|170|19.4335413|-99.1997739|19.4335413,-99.19977390000001|7.391778374534651 km
  Calle Lago Zurich 245, Delegación Miguel Hidalgo, 11529 Ciudad De México, Cdmx, Miguel Hidalgo, Distrito Federal (cdmx)|30000|3|3.0|145|19.4416421|-99.2039005|19.4416421,-99.2039005|8.13361113869306 km
  Villalongin 82, Cuauhtémoc, Distrito Federal (cdmx)|18500|2|2.0|95|19.432859|-99.1639295|19.432859,-99.16392950000001|4.011292220877284 km
  Moras 1254, Álvaro Obregón, Distrito Federal (cdmx)|14000|1|1.0|20|19.3584142|-99.1777706|19.3584142,-99.17777059999999|7.434299393989363 km
  Moras 1254, Álvaro Obregón, Distrito Federal (cdmx)|28000|2|2.0|45|19.3584142|-99.1777706|19.3584142,-99.17777059999999|7.434299393989363 km
  Lamartine 0, 501, Polanco, Miguel Hidalgo, Distrito Federal (cdmx)|25000|3|2.0|120|19.432127800000004|-99.1897538|19.432127800000004,-99.18975379999999|6.352328970665878 km
  Sierra Gorda 23, Lomas De Chapultepec, Miguel Hidalgo, Distrito Federal (cdmx)|155240|4|4.0|400|19.4279636|-99.221941|19.4279636,-99.221941|9.471803468997715 km
  Sierra Gorda 23, Lomas De Chapultepec, Miguel Hidalgo, Distrito Federal (cdmx)|174645|3|4.0|353|19.4279636|-99.221941|19.4279636,-99.221941|9.471803468997715 km
  Ejército Nacional 225, Ciudad De México, Distrito Federal (cdmx)|23000|2|2.0|104|19.4367558|-99.17931109999999|19.4367558,-99.1793111|5.593402958769988 km
  Calle Pitágoras 284, Benito Juárez, Distrito Federal (cdmx)|19405|1|1.0|71|19.3983501|-99.1573626|19.398350100000002,-99.1573626|2.8571054463388372 km
  Arquimedes 196, 2, Polanco, Miguel Hidalgo, Distrito Federal (cdmx)|36000|3|3.0|200|19.4363783|-99.19075240000001|19.4363783,-99.1907524|6.635954885919585 km
  Carretera Mexico Toluca 2500, Santa Fe Cuajimalpa, Cuajimalpa De Morelos|27000|3|4.0|127|19.3888472|-99.2400876|19.388847199999997,-99.2400876|11.450439559242588 km
  Yaquis 1, Tlalpan, Distrito Federal (cdmx)|7500|2|1.0|72|19.2751896|-99.17243859999999|19.2751896,-99.1724386|15.564235656398496 km
  Yaquis 1, Tlalpan, Distrito Federal (cdmx)|4000|2|1.0|33|19.2751896|-99.17243859999999|19.2751896,-99.1724386|15.564235656398496 km
  Nubia 264, Del Recreo, Azcapotzalco, Distrito Federal (cdmx)|10500|2|1.0|55|19.4735213|-99.1823344|19.4735213,-99.1823344|8.621030723148756 km
  Calzada De Tlalpan 1510, Portales Oriente, Benito Juárez, Distrito Federal (cdmx)|14000|2|2.0|70|19.3632488|-99.1424011|19.3632488,-99.1424011|5.352096344466865 km
  Begonias 1, Clavería, Azcapotzalco, Distrito Federal (cdmx)|8750|2|1.0|75|19.4635773|-99.1805139|19.4635773,-99.18051390000001|7.638379803717599 km
  Prolongación Paseo De La Reforma 307, Santa Fe, Álvaro Obregón, Distrito Federal (cdmx)|19500|2|2.0|75|19.3795682|-99.2538313|19.3795682,-99.2538313|13.098482373553848 km
  José María Izazaga 20, Distrito Federal (cdmx)|18000|2|1.0|80|19.426923100000003|-99.1408698|19.426923100000003,-99.1408698|1.935527849463177 km
  Renta Residencial La Jolla Bosques De La Reforma 1592, Bosques De Las Lomas, Cuajimalpa De Morelos, Bosques De Las Lomas, Cuajimalpa De Morelos|97025|3|3.0|400|19.3846052|-99.2638167|19.3846052,-99.2638167|13.986085494759488 km
  Mimosa 3, Distrito Federal (cdmx)|3500|1|1.0|30|19.3335691|-99.233711|19.333569100000002,-99.233711|13.560427967711163 km
  Calle  3, Agrícola Pantitlán, Iztacalco|3500|1|1.0|35|19.413731100000003|-99.0644816|19.413731100000003,-99.0644816|7.263675091879878 km
  Calzada De Las Aguilas 1124, Ciudad De México, Distrito Federal (cdmx)|7700|2|1.0|60|19.3492373|-99.2248749|19.349237300000002,-99.2248749|11.770047315161772 km
  Bahia De San Hipolito 43, Colonia Anahuac I Sección, Miguel Hidalgo, Distrito Federal (cdmx)|17500|2|2.0|74|19.4400986|-99.1768242|19.4400986,-99.17682420000001|5.576978456721314 km
  Barranquilla 139, Gustavo A. Madero, Distrito Federal (cdmx)|10500|2|1.0|66|19.5019839|-99.1276727|19.5019839,-99.1276727|10.105456897102483 km
  Paseo De Las Palmas 800, Lomas De Chapultepec, Miguel Hidalgo, Distrito Federal (cdmx)|194050|2|3.0|620|19.428531600000003|-99.21608409999999|19.428531600000003,-99.2160841|8.883549547692107 km
  Paseo De Las Palmas 800, Lomas De Chapultepec, Miguel Hidalgo, Distrito Federal (cdmx)|62096|1|2.0|230|19.428531600000003|-99.21608409999999|19.428531600000003,-99.2160841|8.883549547692107 km
  Paseo De Las Palmas 800, Lomas De Chapultepec, Miguel Hidalgo, Distrito Federal (cdmx)|97025|3|4.0|360|19.428531600000003|-99.21608409999999|19.428531600000003,-99.2160841|8.883549547692107 km
  Paseo De Las Palmas 800, Lomas De Chapultepec, Miguel Hidalgo, Distrito Federal (cdmx)|523935|2|3.0|270|19.428531600000003|-99.21608409999999|19.428531600000003,-99.2160841|8.883549547692107 km
  Ave. Carlos Lazo 20, Álvaro Obregón, Distrito Federal (cdmx)|22000|1|1.0|120|19.3638252|-99.2659316|19.363825199999997,-99.2659316|14.846821581298924 km
  6ta Cerrada De Francisco I Madero, Ex Ejido De Santa Ursula Coapa, Ex-ejido De Santa Ursula Coapa, Ciudad De México|2900|3||80|19.3043162|-99.1413745|19.3043162,-99.1413745|11.823206310362307 km
  Calle La Paz  6 Colonia San Lorenzo Huipulco, San Lorenzo Huipulco, Tlalpan, Distrito Federal (cdmx)|2500|34|14.0|200|19.2985134|-99.1487787|19.298513399999997,-99.1487787|12.539291283971034 km
  Pocito 139, 7, Popotla, Miguel Hidalgo, Distrito Federal (cdmx)|8300|3|1.0|70|19.455213600000004|-99.1827196|19.455213600000004,-99.1827196|7.12293519263604 km
  Prol Bosque De La Reforma 1455, Bosques De Las Lomas, Miguel Hidalgo, Distrito Federal (cdmx)|56500|3|4.0|380|19.3878909|-99.2631725|19.3878909,-99.2631725|13.848378960743736 km
  Av. Aquiles Serdan 671, Centro De Azcapotzalco, Distrito Federal (cdmx)|13200|2|1.0|64|19.4836447|-99.1878718|19.4836447,-99.1878718|9.869842403767677 km
  Jesús Lecuona 90, 3, Tlalpan, Distrito Federal (cdmx)|8500|2|1.0|80|19.2850406|-99.1982905|19.285040600000002,-99.1982905|15.499707719993403 km
  Av. Jardín 257, Ampliación Del Gas, Azcapotzalco, Distrito Federal (cdmx)|13000|1|1.0|51|19.465393|-99.1589121|19.465393,-99.1589121|6.59638852138541 km
  Andres Molina Enriquez 4118, Cuauhtémoc, Distrito Federal (cdmx)|5000|1|1.0|40|19.4069017|-99.1285417|19.4069017,-99.1285417|0.6870235131768706 km
  Etla 15, Cuauhtémoc, Cuauhtémoc, Distrito Federal (cdmx)|21000|1|1.0|50|19.4064379|-99.1753665|19.4064379,-99.17536650000001|4.416877473726308 km
  Miguel De Cervantes De Saavedra 303, Granada, Miguel Hidalgo, Distrito Federal (cdmx)|1455375|3|3.0|221|19.4406926|-99.2047001|19.440692600000002,-99.2047001|8.166905584177561 km
  Jesus Del Monte 245, Jesús Del Monte, Cuajimalpa De Morelos|23500|2|2.0|98|19.3675283|-99.2925703|19.3675283,-99.2925703|17.37710905595485 km
  Miguel De Cervantes Saavedra 443, Granada, Miguel Hidalgo, Distrito Federal (cdmx)|43000|3|2.0|110|19.4406215|-99.2079858|19.4406215,-99.2079858|8.480607616478283 km
  Avenida 2 200, San Pedro De Los Pinos, Álvaro Obregón, Distrito Federal (cdmx)|14500|2|2.0|90|19.3887582|-99.1845614|19.388758199999998,-99.1845614|5.888324087862041 km
  Tekit 189-16, Colonia Heroes De Padierna, Tlalpan, Distrito Federal (cdmx)|6500|2|1.0|60|19.2876015|-99.2258515|19.2876015,-99.2258515|16.7389356446265 km
  Tekit 189-16, Colonia Heroes De Padierna, Tlalpan, Distrito Federal (cdmx)|5200|2|1.0|60|19.2876015|-99.2258515|19.2876015,-99.2258515|16.7389356446265 km
  Bartolome R Salido 166, Vertiz Narvarte, Benito Juárez, Distrito Federal (cdmx)|16000|2|2.0|76|19.3821537|-99.1503048|19.3821537,-99.1503048|3.631953858306775 km
  Avenida Parque Lira 141, 12, San Miguel Chapultepec, Miguel Hidalgo, Distrito Federal (cdmx)|15000|2|1.0|95|19.4043632|-99.1877986|19.4043632,-99.1877986|5.740713242090455 km
  Prol. Paseo De La Reforma 3700, Bosques De Las Lomas, Miguel Hidalgo, Distrito Federal (cdmx)|56500|3|4.0|380|19.3883491|-99.2409138|19.3883491,-99.24091379999999|11.547041303216304 km
  Antigua Taxqueña 164, Coyoacán, Distrito Federal (cdmx)|17500|3|2.0|115|19.3451105|-99.1530858|19.3451105,-99.1530858|7.562104415573589 km
  Lago Neuchatel 10, Ampliación Granada, Miguel Hidalgo, Distrito Federal (cdmx)|28500|3|2.0|125|19.4423271|-99.20165159999999|19.4423271,-99.2016516|7.952661528136879 km
  Lago Neuchatel 10, Ampliación Granada, Miguel Hidalgo, Distrito Federal (cdmx)|28500|3|2.0|125|19.4423271|-99.20165159999999|19.4423271,-99.2016516|7.952661528136879 km
  Gabino Barreda 117, San Rafael, Ciudad De México|4500|2|1.0|70|19.4361769|-99.16443149999999|19.436176899999996,-99.1644315|4.283966735244675 km
  Av Tamapulipas 250, San Francisco Culhuacán Barrio De Santa Ana, Ciudad De México|66000|4|4.0|320|19.333673|-99.123239|19.333673,-99.123239|8.613787446653951 km
  Adolfo Prieto 1033, Del Valle, Benito Juárez, Distrito Federal (cdmx)|34000|2|3.0|116|19.386347600000004|-99.16909509999999|19.386347600000004,-99.1690951|4.613900836306483 km
  Adolfo Prieto 1033, Del Valle, Benito Juárez, Distrito Federal (cdmx)|30000|2|2.0|116|19.386347600000004|-99.16909509999999|19.386347600000004,-99.1690951|4.613900836306483 km
  Adolfo Prieto 1033, Del Valle, Benito Juárez, Distrito Federal (cdmx)|34000|2|2.0|116|19.386347600000004|-99.16909509999999|19.386347600000004,-99.1690951|4.613900836306483 km
  Adolfo Prieto 1033, Del Valle, Benito Juárez, Distrito Federal (cdmx)|26000|3|2.0|117|19.386347600000004|-99.16909509999999|19.386347600000004,-99.1690951|4.613900836306483 km
  Parras 15, Hipódromo, Cuauhtémoc, 06100, México D.f., Distrito Federal (cdmx)|4500|1|1.0|11|19.4146434|-99.1702334|19.4146434,-99.1702334|3.872975121393906 km
  Avenida México No. 133, Colonia Hipódromo, Delegación Cuauhtémoc, Ciudad De México, Ciudad De México, Distrito Federal (cdmx)|15500|1|1.0|40|19.4107758|-99.16902259999999|19.4107758,-99.1690226|3.7232335964778507 km
  Calle 4 Num 308, Agrícola Pantitlán, Iztacalco|4500|2|1.0|60|19.4155236|-99.0623488|19.4155236,-99.0623488|7.498458680684653 km
  Arquimedes 1, Polanco, Miguel Hidalgo, Distrito Federal (cdmx)|97025|3|4.0|240|19.4261608|-99.1917496|19.4261608,-99.1917496|6.34018851776914 km
  Cuitlahuac 19, Isidro Fabela, Tlalpan, Distrito Federal (cdmx)|15500|3|3.0|120|19.2974784|-99.1707496|19.2974784,-99.1707496|13.14538669353542 km
  Parque Lira 0, San Miguel Chapultepec, Miguel Hidalgo, Distrito Federal (cdmx)|15000|2|1.0|93|19.4099693|-99.19050959999998|19.4099693,-99.19050959999998|5.980859241328071 km
  Rio Elba 30, Cuauhtémoc, Distrito Federal (cdmx)|21000|2|1.0|120|19.4254132|-99.1748833|19.425413199999998,-99.1748833|4.627760583314753 km
  Cerrada De La Cruz 12, Cuajimalpa De Morelos, Distrito Federal (cdmx)|21000|2|2.0|94|19.3574017|-99.287644|19.3574017,-99.287644|17.232945306758957 km
  San Marcos 11, Ciudad De México, Distrito Federal (cdmx)|16300|3|3.0|120|19.3075075|-99.2306311|19.3075075,-99.2306311|15.32616880101485 km
  Plutarco Elias Calles 282, Iztacalco, Distrito Federal (cdmx)|10000|2|1.0|72|19.3978246|-99.1119502|19.3978246,-99.1119502|2.69125921854357 km
  Centeotl 341, Azcapotzalco, Distrito Federal (cdmx)|10100|2|2.0|65|19.4814269|-99.1948158|19.4814269,-99.1948158|10.117588673458371 km
  Centeotl 341, Azcapotzalco, Distrito Federal (cdmx)|10000|2|2.0|67|19.4814269|-99.1948158|19.4814269,-99.1948158|10.117588673458371 km
  Centeotl 341, Azcapotzalco, Distrito Federal (cdmx)|10100|2|2.0|65|19.4814269|-99.1948158|19.4814269,-99.1948158|10.117588673458371 km
  Centeotl 341, Azcapotzalco, Distrito Federal (cdmx)|10000|2|2.0|67|19.4814269|-99.1948158|19.4814269,-99.1948158|10.117588673458371 km
  Fracc Copal Lt 2 Edf D104, San Pedro Zacatenco, Gustavo A. Madero|1500|2|1.0|1|19.506951500000003|-99.1214045|19.506951500000003,-99.12140450000001|10.712823427629784 km
  Av Ejercito Nacional 769 Esq Moliere, Miguel Hidalgo, Ciudad De México, Distrito Federal (cdmx)|38000|2|2.0|115|19.439641|-99.1995083|19.439641,-99.1995083|7.622009955064268 km
  2 Cuadras De Ipn, Planetario Lindavista, Ciudad De México|2500|1|1.0|35|19.496732|-99.1425129|19.496732,-99.14251290000001|9.551300329899355 km
  Revillagigedo 18, Distrito Federal (cdmx)|34929|3|2.0|115|19.4342202|-99.1456585|19.4342202,-99.1456585|2.8799020312825596 km
  Lago Alberto 00, Colonia Anahuac I Sección, Miguel Hidalgo, Distrito Federal (cdmx)|25000|2|2.0|90|19.4386555|-99.1808203|19.4386555,-99.1808203|5.838084794577223 km
  Av. De Los Bosques 1516 Col. Lomas De Chamizal, Lomas Del Chamizal, Cuajimalpa De Morelos|45000|3|4.0|285|19.3996683|-99.2564867|19.399668300000002,-99.25648670000001|12.969471731946992 km
  Cholula 10, Hipódromo Condesa, Cuauhtémoc, Distrito Federal (cdmx)|28750|2|2.0|93|19.4102375|-99.1736072|19.4102375,-99.1736072|4.20532864275485 km
  Avenida Paseo De Las Palmas 800, Lomas De Chapultepec I Sección, Miguel Hidalgo, Distrito Federal (cdmx)|679175|3|3.0|320|19.428531600000003|-99.21608409999999|19.428531600000003,-99.2160841|8.883549547692107 km
  Lago Zurich 244 Ph, Ampliación Granada, Miguel Hidalgo, Distrito Federal (cdmx)|25000|3|2.0|110|19.442756600000006|-99.202496|19.442756600000003,-99.202496|8.0531987448862 km
  Concepcion Beistigui 616, 201, Del Valle, Benito Juárez, Distrito Federal (cdmx)|15000|2|2.0|80|19.3898495|-99.1674013|19.3898495,-99.1674013|4.247091264766391 km
  Miguel De Cervantes Saavedra 380, Colonia Irrigación, Miguel Hidalgo, Distrito Federal (cdmx)|35000|2|2.0|154|19.4398116|-99.2057069|19.439811600000002,-99.2057069|8.225266453572551 km
  Cuitlahuac 44, Guadalupe Victoria, Ciudad De México|8500|2|2.0|60|19.4715893|-99.1396748|19.4715893,-99.13967480000001|6.752285768123931 km
  Sullana 700, Lindavista Sur, Gustavo A. Madero|2300|1|1.0|500|19.4927652|-99.1392376|19.4927652,-99.13923759999999|9.085436173046007 km
  Mazaryk 400, Polanco, Miguel Hidalgo, Distrito Federal (cdmx)|50000|4|5.0|350|19.4317034|-99.198464|19.4317034,-99.198464|7.1947875474672 km
  Calzada Del Hueso 300, Ciudad De México, Distrito Federal (cdmx)|6000|1|1.0|20|19.3079824|-99.1341744|19.3079824,-99.1341744|11.389107600965128 km
  Sur 143 1614, Iztacalco, Distrito Federal (cdmx)|7000|2|1.0|120|19.3878741|-99.0984258|19.3878741,-99.09842579999999|4.4842124292550505 km
  A 2 Cuadras De Ipn, Planetario Lindavista, Ciudad De México|2500|1|1.0|40|19.496732|-99.1425129|19.496732,-99.14251290000001|9.551300329899355 km
  Josafat F. Márquez 26, Colonial Iztapalapa, Iztapalapa, Distrito Federal (cdmx)|7500|2|2.0|78|19.3446888|-99.0573055|19.3446888,-99.0573055|10.856338370971532 km
  Av. Talleres Graficos 42b, Agrícola Pantitlán, Iztacalco|5500|2|1.0|64|19.4145621|-99.07126579999999|19.4145621,-99.0712658|6.556962695012827 km
  Calle 31 No. 13, Álvaro Obregón, Col. Olivar Del Conde, Álvaro Obregón, Distrito Federal (cdmx)|4000|2|1.0|64|19.3721312|-99.2207334|19.372131200000002,-99.2207334|10.109892764320573 km
  Alpes 2001 Periferico Sur, Álvaro Obregón, Distrito Federal (cdmx)|13000|2|2.0|76|19.3305129|-99.210092|19.3305129,-99.210092|11.989188841257615 km
  Calle 31-13 Col. Olivar Del Conde 2da Sección, Delegación Álvaro Obregón, Ciudad De México, Distrito Federal (cdmx)|4200|2|1.0|140|19.3721312|-99.2207334|19.372131200000002,-99.2207334|10.109892764320573 km
